,City,Cloudiness,Country,Date,Humidity,Lat,Lng,Max Temp,Wind Speed
0,San Roque,40,EC,2019-03-17 10:00:00,87,0.3,-78.23,13.0,2.6
1,Cherskiy,8,RU,2019-03-17 10:11:55,37,68.75,161.3,-31.51,1.61
2,Rikitea,80,PF,2019-03-17 10:11:37,100,-23.12,-134.97,25.75,9.61
3,Torbay,90,CA,2019-03-17 10:11:04,100,47.66,-52.73,1.67,3.1
4,Bluff,64,AU,2019-03-17 10:11:44,74,-23.58,149.07,25.92,3.41
5,Nizhniy Kuranakh,88,RU,2019-03-17 10:17:23,77,58.84,125.49,-6.16,2.96
6,Mahebourg,40,MU,2019-03-17 10:09:07,70,-20.41,57.7,31.0,3.6
7,Santa Paula,1,US,2019-03-17 10:12:06,76,34.35,-119.06,17.22,1.5
8,Souillac,75,FR,2019-03-17 10:12:10,81,45.6,-0.6,11.11,5.1
9,Albany,90,US,2019-03-17 10:10:48,53,42.65,-73.75,-1.0,4.6
10,Dingle,20,PH,2019-03-17 10:12:19,65,11.0,122.67,28.15,6.41
11,Mataura,24,NZ,2019-03-17 10:10:07,73,-46.19,168.86,17.78,1.36
12,Vaini,0,IN,2019-03-17 10:00:00,17,15.34,74.49,35.0,2.6
13,Bethel,75,US,2019-03-17 09:56:00,92,60.79,-161.76,-8.0,4.1
14,Punta Arenas,75,CL,2019-03-17 10:03:17,93,-53.16,-70.91,11.0,3.1
15,Chokurdakh,64,RU,2019-03-17 10:12:08,44,70.62,147.9,-25.98,1.46
16,Vanimo,48,PG,2019-03-17 10:17:25,96,-2.67,141.3,28.67,6.26
17,Ginda,20,IN,2019-03-17 10:00:00,32,30.69,78.49,27.0,1.0
18,Port Alfred,0,ZA,2019-03-17 10:09:16,83,-33.59,26.89,31.11,3.58
19,Ushuaia,90,AR,2019-03-17 09:00:00,100,-54.81,-68.31,8.0,1.16
20,Killybegs,90,IE,2019-03-17 10:12:03,87,54.63,-8.45,8.33,11.8
21,Roald,75,NO,2019-03-17 10:10:01,64,62.58,6.12,5.0,12.9
22,Kapaa,20,US,2019-03-17 10:08:26,88,22.08,-159.32,23.0,4.81
23,San Patricio,92,PY,2019-03-17 10:11:32,97,-26.98,-56.83,21.77,1.76
24,Pisco,0,PE,2019-03-17 10:00:00,30,-13.71,-76.2,22.0,5.1
25,Saint-Philippe,75,CA,2019-03-17 10:10:13,57,45.36,-73.48,-5.0,3.6
26,Bredasdorp,36,ZA,2019-03-17 10:00:58,73,-34.53,20.04,24.0,6.2
27,New Norfolk,75,AU,2019-03-17 10:11:15,67,-42.78,147.06,17.0,2.1
28,Vestmannaeyjar,88,IS,2019-03-17 10:12:08,100,63.44,-20.27,3.47,4.66
29,Longyearbyen,40,NO,2019-03-17 09:50:00,59,78.22,15.63,-18.0,0.76
30,Grand-Lahou,12,CI,2019-03-17 10:17:27,77,5.24,-5.0,30.07,1.71
31,Dikson,64,RU,2019-03-17 10:11:32,95,73.51,80.55,-13.23,11.96
32,Aklavik,90,CA,2019-03-17 09:00:00,79,68.22,-135.01,-4.0,3.1
33,Provideniya,64,RU,2019-03-17 10:11:51,100,64.42,-173.23,-11.53,2.31
34,Sao Filipe,0,CV,2019-03-17 10:12:01,99,14.9,-24.5,21.22,6.11
35,Colares,40,PT,2019-03-17 10:17:03,76,38.8,-9.45,14.0,1.5
36,Hobart,75,AU,2019-03-17 10:08:15,67,-42.88,147.33,17.0,2.1
37,Nicoya,0,CR,2019-03-17 10:15:15,61,10.15,-85.45,25.87,7.61
38,Shalinskoye,68,RU,2019-03-17 10:17:28,60,55.72,93.76,-1.68,3.21
39,Atuona,0,PF,2019-03-17 10:11:25,100,-9.8,-139.03,27.97,6.21
40,Saskylakh,24,RU,2019-03-17 10:11:28,78,71.97,114.09,-24.63,3.11
41,Jamestown,0,AU,2019-03-17 10:11:27,66,-33.21,138.6,20.4,2.81
42,Puerto Ayora,0,EC,2019-03-17 10:11:20,98,-0.74,-90.35,23.25,1.56
43,Narsaq,92,GL,2019-03-17 08:50:00,59,60.91,-46.05,2.0,7.2
44,Mar del Plata,92,AR,2019-03-17 10:08:21,44,-46.43,-67.52,18.92,6.71
45,Lebu,40,ET,2019-03-17 09:00:00,36,8.96,38.73,25.0,6.2
46,Placerville,1,US,2019-03-17 10:12:34,87,38.73,-120.8,11.11,2.6
47,Barrow,80,AR,2019-03-17 10:12:15,96,-38.31,-60.23,18.97,2.51
48,Santa Maria do Suacui,20,BR,2019-03-17 10:17:30,95,-18.19,-42.41,20.4,1.21
49,Brae,64,GB,2019-03-17 09:50:00,60,60.4,-1.35,6.0,12.9
50,Hilo,1,US,2019-03-17 10:11:42,83,19.71,-155.08,21.0,1.5
51,Ponta do Sol,64,BR,2019-03-17 10:12:38,96,-20.63,-46.0,18.87,1.06
52,Saint-Augustin,75,FR,2019-03-17 10:15:34,87,44.83,-0.61,11.67,4.6
53,Road Town,75,VG,2019-03-17 10:12:12,78,18.42,-64.62,23.89,2.6
54,Hithadhoo,20,MV,2019-03-17 10:11:23,100,-0.6,73.08,28.57,1.06
55,Clyde River,75,CA,2019-03-17 09:44:00,75,70.47,-68.59,-28.0,7.7
56,Acapulco,20,MX,2019-03-17 08:43:00,88,16.86,-99.88,24.0,1.5
57,Itamaraca,20,BR,2019-03-17 10:00:00,83,-7.75,-34.83,26.0,1.0
58,Saint George,0,GR,2019-03-17 10:03:30,52,39.45,22.34,18.89,4.1
59,Cayenne,75,GF,2019-03-17 10:00:00,94,4.94,-52.33,23.0,1.0
60,Bilibino,0,RU,2019-03-17 10:17:32,32,68.06,166.44,-30.58,0.96
61,Jelah,0,BA,2019-03-17 10:00:00,45,44.65,17.96,20.56,3.1
62,Naze,64,NG,2019-03-17 10:11:55,94,5.43,7.07,29.0,2.41
63,Vila Franca do Campo,20,PT,2019-03-17 10:16:34,87,37.72,-25.43,16.0,2.1
64,Rosarito,40,CO,2019-03-17 10:00:00,94,4.91,-75.23,21.0,2.1
65,Ucluelet,0,CA,2019-03-17 10:15:26,96,48.94,-125.55,6.11,1.41
66,Iquique,0,CL,2019-03-17 10:00:00,72,-20.22,-70.14,19.0,2.96
67,Osoyoos,1,CA,2019-03-17 10:15:47,80,49.03,-119.47,-1.0,1.5
68,East London,0,ZA,2019-03-17 09:00:00,65,-33.02,27.91,28.0,7.7
69,Palmer,75,US,2019-03-17 10:17:12,82,61.6,-149.11,5.56,6.2
70,Menongue,0,AO,2019-03-17 10:17:35,49,-14.66,17.68,29.02,1.71
71,Biak,36,ID,2019-03-17 10:11:51,77,-0.91,122.88,30.07,0.66
72,Cape Town,90,ZA,2019-03-17 10:11:05,82,-33.93,18.42,18.89,5.7
73,Ormara,12,PK,2019-03-17 10:17:35,62,25.21,64.64,25.9,2.66
74,Grindavik,75,IS,2019-03-17 10:00:00,86,63.84,-22.43,1.0,3.6
75,Lucea,20,JM,2019-03-17 09:00:00,83,18.44,-78.17,24.0,1.0
76,Oktyabrskoye,40,RU,2019-03-17 10:15:30,68,56.73,85.44,0.0,1.0
77,Sena Madureira,44,BR,2019-03-17 10:17:04,97,-9.07,-68.66,22.97,0.91
78,Pevek,64,RU,2019-03-17 10:12:19,89,69.7,170.27,-26.16,5.01
79,Shevchenkove,75,UA,2019-03-17 10:00:00,75,49.7,37.18,7.0,3.0
80,Busselton,0,AU,2019-03-17 10:10:10,34,-33.64,115.35,26.11,8.81
81,Oussouye,0,SN,2019-03-17 09:00:00,57,12.49,-16.54,24.0,4.1
82,Tarakan,0,ID,2019-03-17 09:00:00,48,3.3,117.63,31.0,3.1
83,Khatanga,48,RU,2019-03-17 10:11:43,68,71.98,102.47,-23.08,2.01
84,Saint-Georges,68,CA,2019-03-17 10:16:00,75,46.12,-70.67,-9.44,3.13
85,Fortuna,0,ES,2019-03-17 10:13:14,26,38.18,-1.13,25.0,5.7
86,Qarqin,0,AF,2019-03-17 10:17:38,29,37.41,66.03,27.12,7.46
87,Liepaja,92,LV,2019-03-17 09:50:00,100,56.52,21.02,5.0,5.1
88,Shitanjing,88,CN,2019-03-17 10:12:53,20,39.23,106.34,9.87,1.86
89,Deputatskiy,48,RU,2019-03-17 10:11:34,44,69.3,139.9,-26.78,1.11
90,Volnovakha,92,UA,2019-03-17 10:17:39,98,47.6,37.5,5.77,3.76
91,Yulara,48,AU,2019-03-17 09:00:00,15,-25.24,130.99,32.0,7.7
92,Lata,92,IN,2019-03-17 10:17:39,56,30.78,78.62,11.35,0.76
93,Margate,75,AU,2019-03-17 10:17:21,67,-43.03,147.26,17.0,2.1
94,Arlit,0,NE,2019-03-17 10:17:40,68,18.74,7.39,23.85,2.11
95,Matara,75,PE,2019-03-17 10:00:00,70,-13.74,-72.9,8.0,0.86
96,Geraldton,40,CA,2019-03-17 09:00:00,92,49.72,-86.95,-13.0,1.0
97,Talnakh,56,RU,2019-03-17 10:13:15,84,69.49,88.39,-16.23,1.96
98,Krasnyy Klyuch,24,RU,2019-03-17 10:17:40,88,55.39,56.65,1.67,2.01
99,Pokhara,12,NP,2019-03-17 10:17:41,69,28.21,83.99,17.27,0.61
100,Avarua,92,CK,2019-03-17 09:30:00,94,-21.21,-159.78,25.0,11.8
101,Ilawe,12,NG,2019-03-17 10:17:41,95,7.87,4.43,27.57,2.06
102,Coquimbo,20,CL,2019-03-17 10:00:00,93,-29.95,-71.34,11.0,1.0
103,Ribeira Grande,75,PT,2019-03-17 09:30:00,93,38.52,-28.7,16.0,1.5
104,Cidreira,92,BR,2019-03-17 10:13:06,82,-30.17,-50.22,22.85,5.66
105,Tasiilaq,80,GL,2019-03-17 08:50:00,67,65.61,-37.64,-8.0,2.1
106,Georgetown,20,GY,2019-03-17 10:00:00,94,6.8,-58.16,25.0,3.1
107,Ayan,12,TR,2019-03-17 10:12:45,72,40.67,33.6,2.47,3.56
108,Ballina,40,IE,2019-03-17 10:17:03,93,54.11,-9.15,8.89,9.3
109,Port Blair,20,IN,2019-03-17 10:00:00,58,11.67,92.75,31.0,2.6
110,Sarakhs,0,TM,2019-03-17 09:00:00,28,36.54,61.16,28.0,6.2
111,Bandarbeyla,8,SO,2019-03-17 10:12:58,100,9.49,50.81,25.72,2.76
112,Bonavista,0,CA,2019-03-17 10:01:38,88,48.65,-53.11,1.11,7.71
113,Champerico,0,MX,2019-03-17 10:17:43,77,16.38,-93.6,19.15,3.26
114,Sur,0,OM,2019-03-17 10:09:09,78,22.57,59.53,25.72,6.76
115,Plast,0,RU,2019-03-17 10:17:44,94,54.37,60.81,-0.61,2.06
116,Vacaria,80,BR,2019-03-17 10:16:10,100,-28.51,-50.94,18.89,3.61
117,Qaanaaq,0,GL,2019-03-17 10:11:23,82,77.48,-69.36,-33.08,3.41
118,Rakaia,0,NZ,2019-03-17 10:16:29,87,-43.76,172.02,15.56,5.7
119,Port Elizabeth,1,US,2019-03-17 10:06:14,63,39.31,-74.98,1.67,2.1
120,Butaritari,92,KI,2019-03-17 10:12:05,100,3.07,172.79,24.65,2.46
121,Payson,1,US,2019-03-17 10:17:31,69,40.04,-111.73,2.22,2.1
122,Nikolskoye,75,RU,2019-03-17 10:10:44,74,59.7,30.79,3.89,6.0
123,Lazaro Cardenas,88,MX,2019-03-17 10:10:46,44,28.39,-105.62,10.56,1.34
124,Nome,75,US,2019-03-17 10:12:23,71,30.04,-94.42,13.0,2.1
125,Hervey Bay,75,AU,2019-03-17 10:15:10,78,-25.3,152.85,26.11,3.6
126,Chake Chake,48,TZ,2019-03-17 10:17:46,93,-5.25,39.77,28.62,2.56
127,Cabo San Lucas,92,MX,2019-03-17 10:05:11,79,22.89,-109.91,18.89,4.26
128,Wonthaggi,0,AU,2019-03-17 10:17:07,80,-38.6,145.59,22.22,2.51
129,Birao,0,CF,2019-03-17 10:17:46,13,10.3,22.78,31.02,9.66
130,Shediac,20,CA,2019-03-17 10:16:08,57,46.22,-64.55,-4.44,6.7
131,Cochrane,56,CL,2019-03-17 10:11:47,91,-47.25,-72.57,7.22,1.06
132,Anadyr,40,RU,2019-03-17 10:03:17,75,64.73,177.51,-25.0,4.0
133,Umm Lajj,0,SA,2019-03-17 10:17:47,66,25.02,37.27,22.75,4.91
134,Severo-Kurilsk,12,RU,2019-03-17 10:11:54,100,50.68,156.12,-4.83,1.91
135,Belmonte,0,PT,2019-03-17 10:15:02,67,40.36,-7.35,11.67,0.45
136,Salinopolis,92,BR,2019-03-17 10:17:48,94,-0.61,-47.36,27.0,4.66
137,Chuy,92,UY,2019-03-17 10:17:48,98,-33.69,-53.46,20.35,8.01
138,Sioux Lookout,90,CA,2019-03-17 09:00:00,85,50.1,-91.92,-9.0,1.16
139,Saint-Louis,0,CH,2019-03-17 10:17:33,44,47.59,7.56,16.67,8.2
140,Husavik,0,CA,2019-03-17 10:10:40,94,50.56,-96.99,-10.57,1.31
141,Nongstoin,0,IN,2019-03-17 10:17:49,40,25.52,91.27,27.0,3.21
142,Yaan,20,NG,2019-03-17 10:17:49,78,7.38,8.57,30.32,2.26
143,Acajutla,0,SV,2019-03-17 10:10:03,54,13.59,-89.83,21.67,1.34
144,Snasa,40,NO,2019-03-17 09:50:00,69,64.25,12.38,1.0,7.7
145,Tsabong,88,BW,2019-03-17 10:17:50,28,-26.02,22.4,29.67,4.41
146,Bambous Virieux,40,MU,2019-03-17 10:09:07,70,-20.34,57.76,31.0,3.6
147,Linjiang,0,CN,2019-03-17 10:17:50,48,41.81,126.91,2.62,3.01
148,Mezen,8,RU,2019-03-17 10:17:51,75,65.85,44.24,-0.68,3.16
149,Zhigansk,8,RU,2019-03-17 10:13:12,47,66.77,123.37,-18.91,3.01
150,Akdepe,0,TM,2019-03-17 10:00:00,37,42.05,59.39,22.0,5.1
151,Kamachumu,88,TZ,2019-03-17 10:17:51,78,-1.62,31.62,25.77,2.26
152,San Antero,8,CO,2019-03-17 10:17:51,85,9.38,-75.76,25.27,1.76
153,Lorengau,76,PG,2019-03-17 10:13:23,100,-2.02,147.27,27.4,4.51
154,Lake Havasu City,1,US,2019-03-17 10:16:27,44,34.47,-114.34,16.0,1.31
155,Phek,0,IN,2019-03-17 10:17:52,37,25.7,94.46,25.75,1.06
156,Taltal,36,CL,2019-03-17 10:12:59,95,-25.41,-70.49,11.75,0.01
157,Marawi,100,PH,2019-03-17 10:15:44,80,8.0,124.29,27.22,4.47
158,Monroe,1,US,2019-03-17 10:17:28,92,41.91,-83.4,-3.89,1.21
159,Vostok,88,RU,2019-03-17 10:13:06,54,46.45,135.83,-0.53,2.21
160,Castro,75,CL,2019-03-17 10:00:00,100,-42.48,-73.76,12.0,6.2
161,Bongaree,75,AU,2019-03-17 10:17:47,100,-27.08,153.16,23.33,2.6
162,Yellowknife,5,CA,2019-03-17 10:11:34,72,62.45,-114.38,-8.33,3.1
163,Katsuura,40,JP,2019-03-17 09:51:11,57,33.93,134.5,10.0,5.7
164,Unity,0,CA,2019-03-17 10:03:54,88,52.44,-109.15,-10.0,2.68
165,Upernavik,12,GL,2019-03-17 10:11:34,100,72.79,-56.15,-25.16,5.86
166,Nortelandia,68,BR,2019-03-17 10:14:33,87,-14.45,-56.8,23.15,1.76
167,Labuhan,48,ID,2019-03-17 10:17:55,66,-2.54,115.51,28.4,1.21
168,Kasempa,32,ZM,2019-03-17 10:17:55,86,-13.46,25.83,25.62,1.86
169,Urusha,32,RU,2019-03-17 10:17:55,49,54.05,122.9,3.72,2.86
170,Ostrovnoy,36,RU,2019-03-17 10:17:56,94,68.05,39.51,-0.61,6.96
171,Caceres,76,CO,2019-03-17 10:13:13,96,5.53,-74.53,19.02,1.06
172,Tiksi,8,RU,2019-03-17 10:11:36,54,71.64,128.87,-28.23,1.41
173,Alcala la Real,0,ES,2019-03-17 10:15:38,50,37.46,-3.92,18.33,0.5
174,Clifton,32,AU,2019-03-17 10:15:39,95,-27.93,151.91,18.89,1.79
175,Nioro,0,GM,2019-03-17 10:11:54,39,13.79,-15.05,23.72,2.16
176,Petropavlovsk-Kamchatskiy,36,RU,2019-03-17 09:00:00,78,53.05,158.65,-10.0,1.0
177,Berlevag,56,NO,2019-03-17 10:17:57,100,70.86,29.09,-1.68,4.51
178,Beyla,0,GN,2019-03-17 10:16:01,68,8.69,-8.65,28.33,0.89
179,Kuala Lipis,20,MY,2019-03-17 10:17:58,47,4.19,102.05,34.22,1.81
180,Fairbanks,90,US,2019-03-17 10:15:42,74,64.84,-147.72,4.0,3.51
181,Nelson Bay,75,AU,2019-03-17 10:16:56,94,-32.72,152.14,21.67,3.6
182,Saldanha,0,PT,2019-03-17 10:12:28,67,41.42,-6.55,8.82,2.31
183,Tessalit,0,ML,2019-03-17 10:17:58,22,20.2,1.01,27.9,2.96
184,Port Macquarie,90,AU,2019-03-17 10:15:05,94,-31.43,152.91,20.0,2.16
185,Tuktoyaktuk,56,CA,2019-03-17 10:11:50,96,69.44,-133.03,-10.13,9.96
186,Thunder Bay,5,CA,2019-03-17 10:16:26,85,48.41,-89.26,-9.44,2.1
187,Togul,80,RU,2019-03-17 10:17:59,91,53.47,85.91,-5.13,3.56
188,Puerto Colombia,20,CO,2019-03-17 10:15:09,83,10.99,-74.96,25.0,5.1
189,Tura,8,IN,2019-03-17 10:09:59,42,25.52,90.21,27.67,2.76
190,Sohag,0,EG,2019-03-17 09:00:00,32,26.55,31.7,19.0,4.6
191,Ilebo,24,CD,2019-03-17 10:18:00,84,-4.33,20.59,27.9,1.41
192,Airai,92,TL,2019-03-17 10:11:47,96,-8.93,125.41,20.72,0.51
193,Chapais,90,CA,2019-03-17 09:42:00,71,49.78,-74.86,-15.0,4.6
194,Mount Gambier,75,AU,2019-03-17 10:03:00,93,-37.83,140.78,17.0,3.6
195,Balabac,0,PH,2019-03-17 10:18:01,99,7.99,117.06,28.5,3.21
196,Northam,40,GB,2019-03-17 10:17:05,70,51.04,-4.21,8.33,7.2
197,Vardo,1,US,2019-03-17 10:08:04,43,39.62,-77.74,2.22,5.1
198,Esperance,20,TT,2019-03-17 10:02:02,88,10.24,-61.45,23.0,2.31
199,Victoria,75,BN,2019-03-17 09:30:00,62,5.28,115.24,30.0,3.1
200,Ciudad Bolivar,0,VE,2019-03-17 10:18:02,72,8.12,-63.55,24.87,5.76
201,Baruun-Urt,0,MN,2019-03-17 10:18:02,15,46.68,113.28,13.65,3.81
202,Kavieng,68,PG,2019-03-17 10:11:53,100,-2.57,150.8,28.27,1.76
203,Aldan,88,RU,2019-03-17 10:18:03,77,58.61,125.39,-6.16,2.96
204,Ilanskiy,80,RU,2019-03-17 10:18:03,89,56.24,96.06,-0.76,3.86
205,Ketchikan,90,US,2019-03-17 09:56:00,81,55.34,-131.65,10.0,8.2
206,Kodiak,75,US,2019-03-17 10:12:10,86,39.95,-94.76,1.11,2.1
207,Sparti,20,GR,2019-03-17 10:15:49,40,37.07,22.43,20.0,1.06
208,Westport,40,IE,2019-03-17 10:18:03,93,53.8,-9.52,8.89,9.3
209,Bathsheba,40,BB,2019-03-17 10:00:00,74,13.22,-59.52,26.0,7.7
210,Bichena,0,ET,2019-03-17 10:18:04,27,10.45,38.2,28.65,0.96
211,Nola,32,CF,2019-03-17 10:18:05,81,3.52,16.05,28.22,1.31
212,Haines Junction,32,CA,2019-03-17 10:12:14,82,60.75,-137.51,-5.68,1.21
213,Alta Floresta,56,BR,2019-03-17 10:12:45,97,-9.87,-56.08,22.52,0.96
214,Salvacion,76,PH,2019-03-17 10:00:19,77,13.85,121.93,27.78,3.58
215,Mantua,20,IT,2019-03-17 10:14:06,76,45.16,10.79,16.67,3.1
216,Gurlan,0,UZ,2019-03-17 10:00:00,37,41.84,60.39,22.0,5.1
217,Palembang,75,ID,2019-03-17 09:30:00,58,-2.99,104.76,31.0,6.2
218,Peebles,40,GB,2019-03-17 10:17:08,80,55.65,-3.19,7.22,8.2
219,Worland,1,US,2019-03-17 10:15:35,85,44.02,-107.96,-3.89,1.61
220,Turangi,76,NZ,2019-03-17 10:15:04,74,-39.0,175.93,20.56,0.89
221,Batemans Bay,92,AU,2019-03-17 10:16:19,93,-35.71,150.18,18.33,5.21
222,Mana,0,RS,2019-03-17 09:30:00,48,43.52,20.24,16.0,1.5
223,Leningradskiy,56,RU,2019-03-17 10:12:12,78,69.38,178.42,-22.16,10.26
224,Stokmarknes,20,NO,2019-03-17 10:16:39,64,68.56,14.91,1.0,4.6
225,Taksimo,8,RU,2019-03-17 10:18:08,34,56.36,114.84,-5.08,2.21
226,Inzhavino,92,RU,2019-03-17 10:18:08,96,52.33,42.5,0.72,2.96
227,Eureka,75,US,2019-03-17 10:13:49,100,40.8,-124.16,10.0,1.5
228,Aksha,12,RU,2019-03-17 10:18:09,27,50.28,113.29,9.22,5.26
229,Tuatapere,68,NZ,2019-03-17 10:10:07,73,-46.13,167.69,17.78,0.96
230,Santiago del Estero,80,AR,2019-03-17 10:18:09,86,-27.8,-64.26,20.4,4.66
231,Kyzyl-Suu,0,KG,2019-03-17 10:13:29,74,42.34,78.0,-5.57,0.41
232,Thompson,90,CA,2019-03-17 09:00:00,61,55.74,-97.86,-9.0,2.6
233,Kaitangata,12,NZ,2019-03-17 10:11:58,87,-46.28,169.85,11.97,1.76
234,Svetlogorsk,56,RU,2019-03-17 09:30:00,73,53.14,59.15,-4.0,2.0
235,Hermanus,92,ZA,2019-03-17 10:00:58,90,-34.42,19.24,20.56,1.86
236,Kahului,1,US,2019-03-17 10:07:47,77,20.89,-156.47,21.11,2.1
237,Evensk,0,RU,2019-03-17 10:12:10,100,61.92,159.24,-17.43,1.81
238,Arraial do Cabo,20,BR,2019-03-17 10:00:00,94,-22.97,-42.02,26.0,1.0
239,Port-Gentil,20,GA,2019-03-17 09:00:00,74,-0.72,8.78,30.0,2.1
240,Port Hedland,0,AU,2019-03-17 10:00:00,66,-20.31,118.58,31.0,5.1
241,Kem,0,UG,2019-03-17 10:18:11,22,2.68,33.77,35.07,6.11
242,Sigli,0,ID,2019-03-17 10:14:04,69,5.38,95.96,30.4,4.76
243,Huarmey,20,PE,2019-03-17 10:18:11,88,-10.07,-78.15,17.1,1.41
244,Sitka,0,US,2019-03-17 10:00:02,84,37.17,-99.65,0.0,0.45
245,Naron,40,ES,2019-03-17 10:15:16,71,43.52,-8.15,13.33,3.6
246,Beira,40,ES,2019-03-17 10:17:35,71,43.2,-8.36,12.78,3.6
247,Maykor,56,RU,2019-03-17 10:18:12,87,59.01,55.89,-0.08,3.76
248,Nurota,0,UZ,2019-03-17 09:30:00,37,40.56,65.69,21.0,5.1
249,Quang Ngai,88,VN,2019-03-17 10:18:13,84,15.12,108.8,24.25,1.26
250,Mayumba,80,GA,2019-03-17 10:18:13,100,-3.44,10.65,26.02,1.31
251,Nanortalik,92,GL,2019-03-17 10:12:32,100,60.14,-45.24,-3.01,8.66
252,Ambovombe,0,MG,2019-03-17 10:18:13,60,-25.18,46.09,30.32,3.71
253,Kholtoson,8,RU,2019-03-17 10:18:14,44,50.3,103.31,7.65,1.61
254,Codrington,90,AU,2019-03-17 10:10:39,94,-28.95,153.24,24.0,2.6
255,Nuevo Progreso,90,US,2019-03-17 10:17:21,66,26.05,-97.95,13.0,3.1
256,Havoysund,8,NO,2019-03-17 09:50:00,63,71.0,24.66,-3.0,7.7
257,Diplo,0,PK,2019-03-17 10:18:15,27,24.47,69.59,32.6,3.21
258,Nguruka,48,TZ,2019-03-17 10:18:15,88,-5.11,31.04,23.65,1.21
259,Namatanai,32,PG,2019-03-17 10:12:50,100,-3.66,152.44,27.92,4.21
260,Byron Bay,90,AU,2019-03-17 10:15:55,94,-28.65,153.62,24.0,2.6
261,Verkhneyarkeyevo,68,RU,2019-03-17 10:18:16,83,55.45,54.3,-0.36,3.06
262,Kodinar,0,IN,2019-03-17 10:18:16,16,20.79,70.7,36.37,0.71
263,Mount Pleasant,1,US,2019-03-17 10:16:11,74,33.16,-94.97,4.0,1.06
264,Jos,0,NG,2019-03-17 10:16:17,21,9.92,8.9,27.85,4.66
265,San Jose,20,PH,2019-03-17 10:13:23,65,15.79,120.99,26.85,1.66
266,Luderitz,0,NA,2019-03-17 10:13:11,91,-26.65,15.16,18.4,4.46
267,Los Llanos de Aridane,75,ES,2019-03-17 10:17:03,63,28.66,-17.92,19.0,7.7
268,Bilma,0,NE,2019-03-17 10:12:28,22,18.69,12.92,25.12,2.16
269,Vanderhoof,0,CA,2019-03-17 10:18:19,79,54.02,-124.02,-5.38,0.96
270,Diffa,32,NE,2019-03-17 10:18:19,15,13.32,12.61,30.87,7.16
271,Santona,90,ES,2019-03-17 10:13:04,87,43.44,-3.46,10.56,3.1
272,Araouane,0,ML,2019-03-17 10:18:20,18,18.9,-3.53,25.72,2.11
273,Storforshei,0,NO,2019-03-17 09:50:00,45,66.4,14.52,-3.0,5.1
274,Praia da Vitoria,20,PT,2019-03-17 10:00:03,93,38.73,-27.07,15.0,2.66
275,Waipawa,44,NZ,2019-03-17 10:09:17,90,-39.94,176.59,14.44,1.41
276,Teya,40,MX,2019-03-17 10:00:50,73,21.05,-89.07,25.0,3.1
277,Buala,0,SB,2019-03-17 10:12:17,83,-8.15,159.59,29.12,2.56
278,Okhotsk,48,RU,2019-03-17 10:18:21,94,59.36,143.24,-11.43,1.46
279,Lasa,20,CY,2019-03-17 10:00:22,55,34.92,32.53,19.0,7.2
280,Hulan Ergi,0,CN,2019-03-17 10:18:21,34,47.2,123.63,11.17,7.01
281,Neiafu,68,TO,2019-03-17 10:18:21,100,-18.65,-173.98,26.57,1.66
282,Verkhoyansk,0,RU,2019-03-17 10:18:22,45,67.55,133.39,-26.73,1.16
283,Luanda,75,AO,2019-03-17 09:00:00,66,-8.83,13.24,30.0,2.1
284,Nishihara,40,JP,2019-03-17 10:13:13,66,35.74,139.53,13.33,5.7
285,Vila Velha,20,BR,2019-03-17 10:08:10,83,-3.71,-38.6,25.0,2.1
286,Russell,0,AR,2019-03-17 10:00:00,93,-33.01,-68.8,12.0,1.5
287,Marsaxlokk,20,MT,2019-03-17 10:10:20,72,35.84,14.54,17.22,5.1
288,Lompoc,1,US,2019-03-17 10:10:25,87,34.64,-120.46,14.44,1.86
289,Polunochnoye,76,RU,2019-03-17 10:18:23,82,60.87,60.43,-2.36,2.06
290,Himatangi,0,NZ,2019-03-17 10:15:39,82,-40.4,175.32,16.67,1.79
291,Sao Miguel do Araguaia,68,BR,2019-03-17 10:18:24,95,-13.28,-50.16,22.27,3.01
292,Lazarev,44,RU,2019-03-17 10:18:24,74,52.23,141.51,-4.61,2.96
293,Lahaina,1,US,2019-03-17 10:17:47,77,20.87,-156.68,21.11,2.1
294,Tual,68,ID,2019-03-17 10:18:25,96,-5.67,132.75,29.5,5.26
295,Lagoa,0,PT,2019-03-17 10:07:07,48,37.14,-8.45,17.0,2.6
296,Rundu,0,NA,2019-03-17 10:18:25,30,-17.91,19.77,33.72,5.01
297,Presidencia Roque Saenz Pena,56,AR,2019-03-17 10:18:25,96,-26.79,-60.44,20.82,1.46
298,Vao,64,EE,2019-03-17 10:13:30,93,59.1,26.19,1.47,3.11
299,Lagos,32,NG,2019-03-17 10:14:09,89,6.46,3.39,30.0,2.66
300,Morristown,1,US,2019-03-17 10:18:14,79,36.21,-83.29,2.78,1.21
301,Escanaba,1,US,2019-03-17 10:18:12,92,45.75,-87.06,-5.0,1.11
302,Korem,0,ET,2019-03-17 10:18:27,56,12.51,39.52,24.62,1.61
303,Adjumani,0,UG,2019-03-17 10:18:27,56,3.38,31.79,31.42,1.51
304,Okha,80,RU,2019-03-17 10:13:47,86,53.59,142.95,-4.16,2.96
305,Srednekolymsk,20,RU,2019-03-17 10:18:27,46,67.46,153.71,-26.53,1.51
306,Charcas,92,MX,2019-03-17 10:18:27,81,23.13,-101.11,7.35,1.06
307,Mokhsogollokh,20,RU,2019-03-17 10:18:28,69,61.4,128.95,-14.16,2.56
308,Poronaysk,0,RU,2019-03-17 10:18:28,64,49.22,143.1,-5.28,2.16
309,Banda Aceh,0,ID,2019-03-17 10:18:28,55,5.56,95.32,32.77,2.86
310,Baran,0,IN,2019-03-17 10:18:29,42,25.1,76.52,28.6,1.91
311,Port Hardy,40,CA,2019-03-17 09:00:00,93,50.7,-127.42,3.0,1.0
312,Yining,80,CN,2019-03-17 10:18:29,76,29.04,114.56,12.77,1.41
313,Kidal,20,ML,2019-03-17 10:18:29,29,18.44,1.41,26.92,3.11
314,Salinas,1,US,2019-03-17 10:09:45,81,36.67,-121.66,11.67,1.11
315,Ryde,40,GB,2019-03-17 10:15:28,75,50.73,-1.16,8.89,4.1
316,Cooma,40,AU,2019-03-17 09:00:00,72,-36.24,149.13,16.0,5.7
317,Kaura Namoda,56,NG,2019-03-17 10:18:30,21,12.59,6.58,30.62,7.16
318,Faanui,36,PF,2019-03-17 10:11:59,99,-16.48,-151.75,29.02,3.66
319,Moerai,88,PF,2019-03-17 10:18:30,100,-22.43,-151.33,26.42,12.11
320,Half Moon Bay,1,US,2019-03-17 10:17:08,87,37.46,-122.43,11.11,3.6
321,Poum,0,MK,2019-03-17 09:30:00,65,41.28,20.71,12.0,2.6
322,Darhan,0,MN,2019-03-17 10:18:31,27,49.49,105.92,11.85,2.01
323,Kavaratti,0,IN,2019-03-17 10:12:06,100,10.57,72.64,28.15,4.16
324,Jiangyou,80,CN,2019-03-17 10:18:31,65,31.78,104.73,14.67,1.86
325,Soyo,75,AO,2019-03-17 09:00:00,78,-6.13,12.37,28.0,2.6
326,Laguna,24,MX,2019-03-17 10:11:40,74,27.52,-110.01,11.17,0.86
327,Grootfontein,0,NA,2019-03-17 09:00:00,25,-19.56,18.1,32.0,3.1
328,Ginir,0,ET,2019-03-17 10:18:32,24,7.14,40.71,28.65,3.41
329,Nikita,0,UA,2019-03-17 10:18:32,96,44.52,34.24,7.75,5.76
330,Harindanga,40,IN,2019-03-17 10:00:00,52,22.04,88.32,34.0,2.1
331,College,90,US,2019-03-17 10:05:33,74,64.86,-147.8,8.0,3.51
332,San Cristobal,40,EC,2019-03-17 10:01:49,87,-0.39,-78.55,13.0,2.6
333,Bubaque,0,GW,2019-03-17 10:18:33,92,11.28,-15.83,25.42,1.51
334,Kangalassy,0,RU,2019-03-17 09:30:00,59,62.35,129.97,-16.0,3.0
335,Kotido,0,UG,2019-03-17 10:18:33,26,3.01,34.12,32.62,7.16
336,Ahipara,92,NZ,2019-03-17 10:13:31,87,-35.17,173.16,20.47,4.36
337,Antipino,0,RU,2019-03-17 09:30:00,88,57.11,65.76,0.0,2.0
338,Huaihua,44,CN,2019-03-17 10:18:34,72,27.56,109.96,16.42,1.51
339,Beinamar,0,TD,2019-03-17 10:18:34,24,8.67,15.38,33.22,5.16
340,Khasan,0,RU,2019-03-17 10:18:35,60,42.43,130.64,5.15,2.56
341,Iqaluit,20,CA,2019-03-17 10:02:52,68,63.75,-68.52,-26.67,9.3
342,Gamba,12,CN,2019-03-17 10:18:35,92,28.28,88.52,-3.86,2.46
343,Lichinga,12,MZ,2019-03-17 10:18:35,77,-13.3,35.25,26.75,3.56
344,Luena,20,AO,2019-03-17 09:00:00,65,-11.78,19.91,26.0,3.1
345,Vana-Vigala,90,EE,2019-03-17 10:18:04,86,58.78,24.25,3.33,5.7
346,Boulder City,40,US,2019-03-17 10:13:30,30,35.98,-114.83,13.0,2.1
347,Kohtla-Jarve,80,EE,2019-03-17 10:15:18,94,59.4,27.27,1.37,3.76
348,Bograd,0,RU,2019-03-17 09:30:00,72,54.22,90.86,0.0,5.0
349,Faya,75,SA,2019-03-17 09:00:00,63,18.39,42.45,22.0,5.7
350,Isangel,56,VU,2019-03-17 09:00:00,88,-19.55,169.27,23.0,0.5
351,Holme,40,GB,2019-03-17 10:18:29,80,53.7,-2.31,7.78,8.2
352,Houma,68,CN,2019-03-17 10:18:37,29,35.63,111.36,18.9,2.11
353,Nagaur,0,IN,2019-03-17 10:18:37,34,27.2,73.74,28.42,2.76
354,Mabaruma,92,GY,2019-03-17 10:18:38,94,8.2,-59.78,24.47,2.16
355,Urengoy,64,RU,2019-03-17 10:18:38,90,65.96,78.37,-16.86,2.21
356,Empalme,36,MX,2019-03-17 10:15:17,82,27.96,-110.81,10.56,1.31
357,Salalah,40,OM,2019-03-17 09:50:00,65,17.01,54.1,28.0,6.7
358,Coos Bay,90,US,2019-03-17 10:10:27,100,43.37,-124.22,6.67,1.36
359,Puksoozero,0,RU,2019-03-17 10:18:39,97,62.59,40.61,-2.11,3.51
360,Huejuquilla el Alto,88,MX,2019-03-17 10:18:39,61,22.63,-103.9,11.65,1.31
361,Tonk,0,IN,2019-03-17 10:18:39,49,26.16,75.79,27.32,0.96
362,Port Lincoln,0,AU,2019-03-17 10:12:24,81,-34.72,135.86,20.42,6.16
363,Oktyabrskiy,90,RU,2019-03-17 10:13:38,86,55.61,37.97,2.78,5.0
364,Harper,1,US,2019-03-17 10:11:30,61,30.3,-99.24,7.78,1.31
365,Guerrero Negro,76,MX,2019-03-17 10:13:32,89,27.97,-114.04,10.75,2.41
366,Asahikawa,40,JP,2019-03-17 09:00:00,80,43.76,142.37,-1.0,2.1
367,Aracuai,36,BR,2019-03-17 10:18:40,85,-16.85,-42.07,20.07,0.31
368,Raudeberg,88,NO,2019-03-17 10:15:11,52,61.99,5.14,5.0,8.2
369,Taoudenni,0,ML,2019-03-17 10:11:42,14,22.68,-3.98,20.67,3.61
370,Harqalah,8,SY,2019-03-17 10:18:41,94,35.96,38.95,14.22,7.71
371,Teacapan,80,MX,2019-03-17 10:18:41,76,22.54,-105.74,16.97,0.96
372,Guarapari,0,BR,2019-03-17 10:00:00,94,-20.67,-40.5,26.0,1.5
373,Mbandaka,36,CD,2019-03-17 10:18:41,94,0.05,18.26,24.5,2.11
374,Comodoro Rivadavia,0,AR,2019-03-17 09:00:00,56,-45.87,-67.48,20.0,3.1
375,Kuzino,24,RU,2019-03-17 10:18:42,59,57.02,59.44,2.32,2.41
376,Koriyama,75,JP,2019-03-17 10:15:30,51,37.4,140.33,6.67,3.6
377,Diamantino,48,BR,2019-03-17 10:18:43,92,-14.4,-56.44,22.52,1.21
378,Naryan-Mar,8,RU,2019-03-17 10:18:43,84,67.67,53.09,-4.93,6.06
379,Yeppoon,40,AU,2019-03-17 10:00:00,74,-23.13,150.74,27.0,3.6
380,Emba,20,CY,2019-03-17 10:15:09,55,34.81,32.42,19.0,7.2
381,Beringovskiy,20,RU,2019-03-17 10:18:44,83,63.05,179.32,-19.18,5.66
382,Paita,48,PE,2019-03-17 10:18:44,77,-5.09,-81.11,23.97,0.61
383,Noumea,0,NC,2019-03-17 09:30:00,83,-22.28,166.46,25.0,5.01
384,Sisimiut,48,GL,2019-03-17 10:11:30,43,66.94,-53.67,-26.36,0.51
385,Guican,12,CO,2019-03-17 10:18:44,94,6.46,-72.41,7.07,0.71
386,Keetmanshoop,0,NA,2019-03-17 10:00:00,21,-26.57,18.15,35.0,4.1
387,Maketu,88,NZ,2019-03-17 10:17:33,79,-37.76,176.45,21.67,0.96
388,Nouadhibou,0,MR,2019-03-17 09:00:00,46,20.93,-17.03,21.0,6.7
389,Ussel,92,FR,2019-03-17 10:15:12,92,45.55,2.31,7.22,1.79
390,Panaba,0,MX,2019-03-17 10:18:45,78,21.28,-88.27,22.52,1.26
391,Gornopravdinsk,24,RU,2019-03-17 10:18:46,69,60.06,69.92,-7.33,1.86
392,Ambilobe,20,MG,2019-03-17 10:18:46,94,-13.19,49.05,28.15,1.16
393,Pag,0,HR,2019-03-17 10:00:00,59,44.45,15.06,17.0,6.2
394,Nemuro,20,JP,2019-03-17 09:00:00,68,43.32,145.57,-1.0,1.5
395,Churapcha,0,RU,2019-03-17 10:18:47,50,62.0,132.43,-15.16,2.01
396,Sun Valley,1,US,2019-03-17 10:01:30,79,43.7,-114.35,-4.0,4.6
397,Fujinomiya,20,JP,2019-03-17 10:17:37,52,35.24,138.62,10.0,7.7
398,Oistins,40,BB,2019-03-17 10:00:00,74,13.07,-59.53,26.0,7.7
399,Marienburg,40,DE,2019-03-17 10:18:46,87,52.12,9.98,10.56,5.1
400,Kitui,8,KE,2019-03-17 10:18:48,59,-1.37,38.02,27.75,3.11
401,Kiruna,0,SE,2019-03-17 09:50:00,57,67.86,20.23,-6.0,2.6
402,Cabra,0,ES,2019-03-17 10:14:59,67,37.47,-4.43,18.33,2.1
403,Cockburn Town,0,TC,2019-03-17 10:12:06,100,21.46,-71.14,24.5,6.76
404,Beaverlodge,75,CA,2019-03-17 09:00:00,74,55.21,-119.43,3.0,5.7
405,Mount Isa,0,AU,2019-03-17 10:00:00,25,-20.73,139.49,25.0,2.6
406,Ouesso,0,CG,2019-03-17 10:18:49,82,1.61,16.05,27.57,1.41
407,Vredendal,32,ZA,2019-03-17 10:18:49,76,-31.68,18.49,18.5,1.81
408,Pochutla,0,MX,2019-03-17 09:46:55,77,15.74,-96.47,23.33,1.21
409,Ambunti,64,PG,2019-03-17 10:18:50,86,-4.22,142.82,27.15,1.01
410,Batagay,24,RU,2019-03-17 10:18:50,41,67.65,134.64,-25.63,1.31
411,Ancud,75,CL,2019-03-17 10:00:00,100,-41.87,-73.83,12.0,6.2
412,Honolulu,20,US,2019-03-17 10:13:12,73,21.3,-157.86,22.0,2.6
413,Saint-Francois,0,FR,2019-03-17 10:15:28,58,46.42,3.91,13.89,6.7
414,Kuldur,88,RU,2019-03-17 10:18:51,57,49.22,131.63,1.67,3.21
415,Inhambane,40,MZ,2019-03-17 09:00:00,58,-23.87,35.38,30.0,3.01
416,Polewali,56,ID,2019-03-17 10:18:51,70,-4.03,119.8,28.12,7.71
417,Madera,0,US,2019-03-17 10:13:11,87,36.96,-120.06,11.0,1.06
418,Parauna,68,ID,2019-03-17 10:18:52,91,-3.82,122.09,24.15,0.76
419,Hambantota,75,LK,2019-03-17 09:10:00,74,6.12,81.12,30.0,6.2
420,El Alto,75,BO,2019-03-17 10:00:00,93,-16.5,-68.19,5.0,2.1
421,Norman Wells,90,CA,2019-03-17 09:00:00,50,65.28,-126.83,1.0,1.5
422,Were Ilu,0,ET,2019-03-17 10:18:52,36,10.6,39.43,23.42,1.31
423,Carthage,1,US,2019-03-17 10:18:31,86,32.16,-94.34,5.0,1.06
424,Taguatinga,20,BR,2019-03-17 09:00:00,94,-15.83,-48.06,20.0,2.1
425,Casino,88,AU,2019-03-17 10:15:55,88,-28.86,153.05,24.0,4.1
426,Quelimane,88,MZ,2019-03-17 10:18:54,82,-17.88,36.89,29.9,4.91
427,Chegutu,92,ZW,2019-03-17 10:18:54,78,-18.13,30.15,21.62,4.26
428,Alice Springs,0,AU,2019-03-17 09:30:00,8,-23.7,133.88,32.0,5.7
429,Loa Janan,32,ID,2019-03-17 10:18:54,83,-0.58,117.09,27.32,1.41
430,Waddan,0,LY,2019-03-17 10:18:54,44,29.16,16.14,19.65,2.21
431,Mitsamiouli,40,KM,2019-03-17 09:00:00,66,-11.38,43.28,32.0,4.1
432,Zhuji,76,CN,2019-03-17 10:12:41,39,29.72,120.23,20.0,4.0
433,Waslala,24,NI,2019-03-17 10:18:55,74,13.33,-85.37,21.37,1.96
434,Allanridge,8,ZA,2019-03-17 10:15:22,44,-27.75,26.64,28.33,0.45
435,Rorvik,40,NO,2019-03-17 10:15:02,69,64.86,11.24,1.67,7.7
436,Maposeni,0,TZ,2019-03-17 10:18:56,66,-10.58,35.4,27.37,1.96
437,Beloha,0,MG,2019-03-17 10:18:56,46,-25.17,45.06,32.75,2.76
438,Khandagayty,88,MN,2019-03-17 10:18:56,68,50.73,92.07,2.75,1.56
439,Richards Bay,36,ZA,2019-03-17 10:12:00,70,-28.77,32.06,26.85,5.01
440,Conceicao do Araguaia,24,BR,2019-03-17 10:18:56,95,-8.26,-49.26,22.42,1.31
441,Rocha,92,UY,2019-03-17 10:12:56,98,-34.48,-54.34,19.22,5.26
442,Pingliang,92,CN,2019-03-17 10:18:57,72,35.54,106.68,7.92,1.51
443,Pozo Colorado,92,PY,2019-03-17 10:18:57,96,-23.49,-58.8,22.22,4.01
444,Azare,0,NG,2019-03-17 10:18:57,17,11.67,10.19,31.25,6.66
445,Fajardo,5,CU,2019-03-17 10:13:09,100,22.83,-82.45,17.0,2.41
446,General Pico,8,AR,2019-03-17 10:18:58,85,-35.66,-63.75,12.15,1.36
447,Ilulissat,24,GL,2019-03-17 08:50:00,54,69.22,-51.1,-18.0,4.1
448,Golden,0,CA,2019-03-17 10:15:35,84,51.3,-116.96,-9.44,1.79
449,High Level,1,CA,2019-03-17 10:00:00,73,58.52,-117.13,-4.0,1.0
450,Upata,0,VE,2019-03-17 10:18:58,85,8.02,-62.41,21.6,3.16
451,Belyy Yar,0,RU,2019-03-17 09:30:00,51,53.6,91.39,0.0,5.0
452,Necochea,64,AR,2019-03-17 10:06:52,97,-38.55,-58.74,19.44,0.45
453,Tezu,64,IN,2019-03-17 10:18:59,84,27.93,96.16,16.47,0.61
454,Royan,75,FR,2019-03-17 10:16:15,81,45.62,-1.03,11.11,5.1
455,Lufilufi,32,WS,2019-03-17 10:13:09,88,-13.87,-171.6,25.56,0.71
456,Great Falls,1,US,2019-03-17 10:01:51,92,47.5,-111.29,-1.11,2.1
457,Makakilo City,1,US,2019-03-17 10:11:34,82,21.35,-158.09,22.0,2.81
458,Garagoa,24,CO,2019-03-17 10:19:00,82,5.08,-73.36,18.27,1.16
459,Joshimath,76,IN,2019-03-17 10:19:01,88,30.57,79.57,-6.53,0.31
460,Sovetskoye,32,UA,2019-03-17 10:19:01,100,45.57,34.49,7.77,6.71
461,Penha,40,BR,2019-03-17 10:18:07,100,-26.78,-48.65,23.33,2.6
462,Terney,32,RU,2019-03-17 10:19:01,67,45.05,136.61,2.75,4.36
463,Maceio,20,BR,2019-03-17 10:00:00,94,-9.67,-35.74,24.0,2.1
464,Bon Accord,1,CA,2019-03-17 10:19:02,63,53.84,-113.41,-1.0,3.1
465,Port-Cartier,90,CA,2019-03-17 10:18:23,60,50.03,-66.88,-11.11,7.7
466,Bundaberg,75,AU,2019-03-17 10:15:10,78,-24.87,152.35,26.67,3.6
467,Ola,48,RU,2019-03-17 10:19:03,100,59.58,151.3,-12.91,6.11
468,Providencia,76,CO,2019-03-17 10:19:03,97,1.24,-77.6,9.65,1.01
469,Aswan,0,EG,2019-03-17 10:13:20,45,24.09,32.9,21.15,5.26
470,Sao Joao da Barra,20,BR,2019-03-17 10:00:00,94,-21.64,-41.05,25.0,2.21
471,Suntar,56,RU,2019-03-17 10:13:37,52,62.16,117.65,-10.38,3.86
472,Rincon,90,US,2019-03-17 10:15:14,58,32.3,-81.24,13.33,1.5
473,Inyonga,32,TZ,2019-03-17 10:19:04,84,-6.72,32.06,23.75,1.66
474,Narathiwat,20,TH,2019-03-17 09:00:00,70,6.43,101.8,32.0,4.6
475,Haverfordwest,8,GB,2019-03-17 10:19:03,70,51.8,-4.97,8.33,9.3
476,Bajil,0,ES,2019-03-17 10:19:05,34,38.23,-2.07,16.62,3.56
477,Pundaguitan,64,PH,2019-03-17 10:19:05,100,6.37,126.17,25.65,3.06
478,Axim,0,GH,2019-03-17 10:13:17,92,4.87,-2.24,29.22,4.21
479,Staryy Krym,20,UA,2019-03-17 10:19:05,100,45.03,35.1,6.97,8.46
480,Abu Samrah,0,SY,2019-03-17 10:19:06,96,35.3,37.18,13.42,8.16
481,Sabang,80,PH,2019-03-17 10:19:06,82,13.72,123.58,26.92,5.56
482,Boyolangu,92,ID,2019-03-17 10:19:06,97,-8.09,111.9,22.12,1.61
483,Los Aquijes,0,PE,2019-03-17 10:00:00,30,-14.1,-75.69,22.0,5.1
484,Kita,40,JP,2019-03-17 10:18:23,66,35.76,139.74,12.0,5.7
485,Cervo,64,BR,2019-03-17 10:19:07,97,-22.19,-46.24,18.82,1.71
486,Pacific Grove,1,US,2019-03-17 10:13:38,81,36.62,-121.92,11.67,1.11
487,Dakar,0,SN,2019-03-17 09:30:00,56,14.69,-17.45,23.0,7.2
488,Stromness,1,CA,2019-03-17 10:19:00,68,42.87,-79.55,-2.22,2.6
489,Werda,0,DE,2019-03-17 10:18:47,40,50.44,12.3,14.44,4.6
490,San Quintin,48,PH,2019-03-17 10:13:21,88,17.54,120.52,24.57,0.91
491,Kathmandu,75,NP,2019-03-17 09:50:00,40,27.71,85.32,22.0,5.1
492,Carnarvon,32,ZA,2019-03-17 10:11:43,17,-30.97,22.13,30.9,4.86
493,Christchurch,24,NZ,2019-03-17 10:10:03,87,-43.53,172.64,15.56,5.7
494,Caravelas,20,BR,2019-03-17 10:11:52,100,-17.73,-39.27,27.97,6.16
495,Aguimes,20,ES,2019-03-17 10:15:38,56,27.91,-15.45,21.0,10.3
496,Zanjan,90,IR,2019-03-17 09:00:00,80,36.67,48.48,5.0,10.8
497,Norilsk,56,RU,2019-03-17 10:19:09,84,69.35,88.2,-16.23,1.96
498,Camacha,40,PT,2019-03-17 09:30:00,67,33.08,-16.33,17.0,4.1
499,Koltubanovskiy,92,RU,2019-03-17 10:19:09,93,52.94,52.03,-0.16,4.46
500,Chai Badan,44,TH,2019-03-17 10:13:20,35,15.2,101.13,38.33,1.96
501,Bogovarovo,80,RU,2019-03-17 10:19:10,88,58.98,47.02,-1.13,2.41
502,Xining,80,CN,2019-03-17 10:19:10,23,36.62,101.77,7.12,4.16
503,Touros,0,BR,2019-03-17 10:00:00,94,-5.2,-35.46,26.0,3.1
504,Rawson,8,AR,2019-03-17 10:19:10,91,-43.3,-65.11,13.0,5.16
505,Kyren,24,RU,2019-03-17 10:19:11,51,51.68,102.13,4.9,1.06
506,Carndonagh,92,IE,2019-03-17 10:19:11,95,55.25,-7.27,5.65,7.46
507,Bodden Town,12,KY,2019-03-17 10:19:11,100,19.28,-81.25,25.85,4.46
508,Ilhabela,36,BR,2019-03-17 10:19:11,100,-23.78,-45.36,25.15,3.21
509,Diego de Almagro,32,CL,2019-03-17 10:19:12,89,-26.39,-70.05,12.9,1.21
510,Lavrentiya,68,RU,2019-03-17 10:12:35,91,65.58,-170.99,-10.33,10.16
511,Portland,40,US,2019-03-17 10:09:15,70,45.52,-122.67,8.89,1.41
512,Saint Anthony,1,US,2019-03-17 10:18:14,79,43.97,-111.68,-4.0,2.1
513,Mandalgovi,0,MN,2019-03-17 10:19:12,54,45.76,106.27,9.85,7.06
514,Seleron,0,GR,2019-03-17 10:18:19,55,41.13,25.0,18.89,2.6
515,Khor,44,RU,2019-03-17 10:19:13,44,47.88,134.96,3.77,4.81
516,Carutapera,76,BR,2019-03-17 10:13:31,99,-1.2,-46.02,25.0,2.06
517,Dedougou,56,BF,2019-03-17 10:17:00,48,12.47,-3.47,28.25,3.26
518,Bhinmal,0,IN,2019-03-17 10:19:13,27,25.01,72.27,32.15,3.66
519,Baijiantan,20,CN,2019-03-17 10:19:13,100,45.63,85.18,-0.48,2.06
520,Jizan,40,SA,2019-03-17 09:00:00,66,16.89,42.56,31.0,5.1
521,Pervomayskiy,64,RU,2019-03-17 10:19:14,99,53.24,40.29,0.6,2.56
522,Nyagan,0,RU,2019-03-17 10:19:14,68,62.14,65.43,-6.16,1.41
523,Hokitika,76,NZ,2019-03-17 10:19:14,99,-42.72,170.96,17.65,0.96
524,Mindelo,90,PT,2019-03-17 10:17:04,100,41.31,-8.72,13.89,4.6
525,Neuquen,0,AR,2019-03-17 09:00:00,93,-38.95,-68.06,11.0,1.96
526,Horodnytsya,32,UA,2019-03-17 10:19:15,100,50.81,27.32,6.72,2.76
527,Novikovo,32,UA,2019-03-17 10:19:16,100,45.05,34.56,6.27,6.56
528,Dali,0,CN,2019-03-17 10:13:41,41,25.6,100.24,19.72,2.56
529,Angoche,8,MZ,2019-03-17 10:19:16,97,-16.23,39.91,28.67,5.11
530,Klaksvik,8,FO,2019-03-17 09:50:00,60,62.23,-6.59,4.0,6.2
