,City,Cloudiness,Country,Date,Humidity,Lat,Lng,Max Temp,Wind Speed
0,Lompoc,1,US,2019-03-19 03:11:50,66,34.64,-120.46,15.56,1.37
1,Punta Arenas,20,CL,2019-03-19 03:13:05,97,-53.16,-70.91,6.0,4.1
2,Altamont,90,CA,2019-03-19 03:10:29,100,49.4,-98.5,1.0,2.72
3,La Ronge,40,CA,2019-03-19 02:00:00,69,55.1,-105.3,2.0,1.5
4,Paamiut,64,GL,2019-03-19 03:15:58,100,61.99,-49.67,-8.34,10.67
5,Kapaa,1,US,2019-03-19 03:13:25,50,22.08,-159.32,24.0,6.2
6,Bluff,8,AU,2019-03-19 03:15:58,66,-23.58,149.07,30.96,1.97
7,Havre-Saint-Pierre,40,CA,2019-03-19 02:00:00,78,50.23,-63.6,-8.0,3.1
8,Ushuaia,40,AR,2019-03-19 03:00:00,100,-54.81,-68.31,5.0,11.3
9,Khatanga,80,RU,2019-03-19 03:15:59,87,71.98,102.47,-14.14,4.57
10,Waipawa,0,NZ,2019-03-19 03:09:16,68,-39.94,176.59,20.56,3.92
11,Busselton,0,AU,2019-03-19 03:15:12,22,-33.64,115.35,35.0,2.97
12,Tuktoyaktuk,90,CA,2019-03-19 02:00:00,92,69.44,-133.03,-4.0,11.3
13,Hithadhoo,88,MV,2019-03-19 03:16:00,100,-0.6,73.08,29.11,2.12
14,Agadez,0,NE,2019-03-19 03:16:00,31,16.97,7.99,22.36,3.92
15,Jamestown,64,AU,2019-03-19 03:15:39,84,-33.21,138.6,25.21,2.42
16,Port Alfred,44,ZA,2019-03-19 03:12:00,96,-33.59,26.89,21.11,0.89
17,Chuy,0,UY,2019-03-19 03:16:01,94,-33.69,-53.46,19.71,4.92
18,Jackson,1,US,2019-03-19 03:10:29,60,35.61,-88.82,8.0,2.57
19,Puerto Ayora,12,EC,2019-03-19 03:15:53,90,-0.74,-90.35,25.0,2.92
20,Bredasdorp,88,ZA,2019-03-19 03:00:00,94,-34.53,20.04,21.67,1.5
21,Taoudenni,8,ML,2019-03-19 03:16:03,18,22.68,-3.98,11.56,1.32
22,Portland,1,US,2019-03-19 03:12:51,31,45.52,-122.67,16.11,10.8
23,Rikitea,44,PF,2019-03-19 03:16:03,100,-23.12,-134.97,25.76,8.72
24,Bondoukou,32,CI,2019-03-19 03:16:04,89,8.04,-2.8,23.71,1.67
25,Butaritari,92,KI,2019-03-19 03:16:04,100,3.07,172.79,28.46,7.27
26,San Cristobal,40,EC,2019-03-19 03:15:32,87,-0.39,-78.55,15.0,2.1
27,Hermanus,64,ZA,2019-03-19 03:01:08,94,-34.42,19.24,21.67,1.37
28,Batemans Bay,92,AU,2019-03-19 03:15:28,75,-35.71,150.18,25.0,0.45
29,San Carlos,0,VE,2019-03-19 03:16:06,45,9.66,-68.59,27.01,3.47
30,Cabo San Lucas,5,MX,2019-03-19 03:10:23,60,22.89,-109.91,21.0,4.1
31,Severo-Kurilsk,88,RU,2019-03-19 03:16:07,95,50.68,156.12,0.16,6.47
32,Alta Floresta,68,BR,2019-03-19 03:16:07,97,-9.87,-56.08,22.91,1.22
33,Dikson,80,RU,2019-03-19 03:16:07,96,73.51,80.55,-3.59,6.87
34,Mataura,0,NZ,2019-03-19 03:10:06,74,-46.19,168.86,19.44,1.79
35,Longyearbyen,75,NO,2019-03-19 01:50:00,85,78.22,15.63,-10.0,7.2
36,Hobart,75,AU,2019-03-19 03:13:14,60,-42.88,147.33,22.78,4.6
37,New Norfolk,75,AU,2019-03-19 03:11:14,60,-42.78,147.06,22.78,4.6
38,Albany,90,US,2019-03-19 03:16:06,92,42.65,-73.75,0.0,1.5
39,Talnakh,68,RU,2019-03-19 03:16:09,91,69.49,88.39,-13.84,3.42
40,Pevek,64,RU,2019-03-19 03:16:09,95,69.7,170.27,-20.79,13.02
41,Vestmannaeyjar,80,IS,2019-03-19 03:16:09,94,63.44,-20.27,5.16,9.37
42,Batagay-Alyta,0,RU,2019-03-19 03:16:10,84,67.8,130.41,-21.94,1.77
43,Esperance,20,TT,2019-03-19 03:16:06,83,10.24,-61.45,25.0,2.1
44,Kendari,8,ID,2019-03-19 03:16:10,79,-3.99,122.52,31.06,1.57
45,Hasaki,75,JP,2019-03-19 03:04:35,42,35.73,140.83,17.22,5.1
46,Clyde River,90,CA,2019-03-19 03:14:00,75,70.47,-68.59,-25.0,12.3
47,Qaanaaq,0,GL,2019-03-19 03:12:05,91,77.48,-69.36,-34.24,3.32
48,Port Hawkesbury,90,CA,2019-03-19 03:16:02,85,45.62,-61.36,-5.57,1.0
49,Saint-Philippe,75,CA,2019-03-19 03:15:48,53,45.36,-73.48,-3.33,2.1
50,Timbuktu,0,ML,2019-03-19 03:16:12,31,16.77,-3.01,18.71,2.27
51,Cherskiy,32,RU,2019-03-19 03:16:12,68,68.75,161.3,-23.09,3.67
52,Barrow,12,AR,2019-03-19 03:16:13,77,-38.31,-60.23,10.91,2.87
53,Cape Town,0,ZA,2019-03-19 03:13:14,93,-33.93,18.42,20.0,2.1
54,Yar-Sale,32,RU,2019-03-19 03:16:14,72,66.83,70.83,-12.94,4.47
55,Georgetown,0,GY,2019-03-19 02:00:00,94,6.8,-58.16,23.0,3.1
56,Miri,0,NG,2019-03-19 03:16:15,52,10.31,9.75,17.01,1.77
57,Gaoua,56,BF,2019-03-19 03:16:15,91,10.33,-3.18,21.41,2.57
58,Qixia,0,CN,2019-03-19 03:16:16,33,37.31,120.83,21.46,6.72
59,Lavrentiya,12,RU,2019-03-19 03:16:16,100,65.58,-170.99,-14.19,2.17
60,Lorengau,68,PG,2019-03-19 03:16:16,100,-2.02,147.27,27.11,3.92
61,Tasiilaq,32,GL,2019-03-19 02:50:00,86,65.61,-37.64,-3.0,4.6
62,East London,0,ZA,2019-03-19 03:00:00,94,-33.02,27.91,21.0,1.5
63,Nikolskoye,90,RU,2019-03-19 03:15:36,93,59.7,30.79,2.22,3.0
64,Calafell,0,ES,2019-03-19 03:16:11,100,41.2,1.57,11.67,3.6
65,Yining,56,CN,2019-03-19 03:16:17,68,29.04,114.56,17.96,1.72
66,Kaitangata,0,NZ,2019-03-19 03:16:17,76,-46.28,169.85,19.41,2.67
67,Port Moresby,40,PG,2019-03-19 03:00:00,59,-9.47,147.16,32.0,5.1
68,Kudahuvadhoo,32,MV,2019-03-19 03:16:18,100,2.67,72.89,28.11,1.22
69,Mar del Plata,36,AR,2019-03-19 03:14:39,57,-46.43,-67.52,12.96,5.27
70,Luderitz,12,NA,2019-03-19 03:16:18,90,-26.65,15.16,14.86,3.67
71,Vanavara,48,RU,2019-03-19 03:16:19,75,60.35,102.28,-7.99,1.72
72,Norman Wells,75,CA,2019-03-19 02:00:00,35,65.28,-126.83,14.0,1.0
73,Harper,1,US,2019-03-19 03:15:17,40,30.3,-99.24,14.0,3.37
74,Teshie,40,GH,2019-03-19 02:00:00,88,5.58,-0.11,28.0,5.1
75,Amot,0,NO,2019-03-19 03:15:29,84,59.57,7.99,-5.0,0.97
76,Swan Hill,8,AU,2019-03-19 03:16:20,96,-35.34,143.56,25.41,1.97
77,Bathsheba,20,BB,2019-03-19 02:00:00,69,13.22,-59.52,25.0,6.7
78,Vaini,0,IN,2019-03-19 02:00:00,37,15.34,74.49,21.0,1.17
79,Bethel,1,US,2019-03-19 01:56:00,73,60.79,-161.76,-5.0,6.7
80,Avarua,12,CK,2019-03-19 02:30:00,79,-21.21,-159.78,29.0,2.1
81,Yellowknife,20,CA,2019-03-19 03:15:30,74,62.45,-114.38,5.56,3.6
82,Torbay,75,CA,2019-03-19 03:16:09,73,47.66,-52.73,-4.44,5.1
83,Bjorkelangen,20,NO,2019-03-19 03:16:07,63,59.88,11.57,-1.11,2.1
84,Lagoa,0,PT,2019-03-19 03:15:52,54,37.14,-8.45,13.33,2.6
85,Santa Marinella,40,IT,2019-03-19 03:15:23,93,42.04,11.87,9.44,3.1
86,Nizhnevartovsk,0,RU,2019-03-19 02:30:00,92,60.93,76.58,-8.0,2.0
87,Ponta do Sol,0,BR,2019-03-19 03:16:25,90,-20.63,-46.0,20.16,1.22
88,Atuona,56,PF,2019-03-19 03:16:25,98,-9.8,-139.03,28.41,6.57
89,Ilulissat,44,GL,2019-03-19 02:50:00,63,69.22,-51.1,-21.0,6.7
90,Hilo,90,US,2019-03-19 03:16:20,56,19.71,-155.08,23.0,4.6
91,Touros,0,BR,2019-03-19 02:00:00,94,-5.2,-35.46,26.0,2.1
92,Nemuro,40,JP,2019-03-19 02:00:00,56,43.32,145.57,7.0,6.2
93,Srednekolymsk,48,RU,2019-03-19 03:16:27,62,67.46,153.71,-22.04,1.62
94,Kysyl-Syr,8,RU,2019-03-19 03:16:27,64,63.9,122.77,-17.94,1.72
95,Mayo,75,CA,2019-03-19 02:00:00,40,63.59,-135.9,11.0,1.5
96,Sitka,8,US,2019-03-19 03:16:28,47,37.17,-99.65,10.81,5.87
97,Mahebourg,75,MU,2019-03-19 03:14:04,83,-20.41,57.7,27.0,4.1
98,Zhezkazgan,0,KZ,2019-03-19 02:00:00,78,47.8,67.71,-12.0,9.0
99,Westport,80,IE,2019-03-19 03:08:12,89,53.8,-9.52,8.89,0.45
100,Belaya Gora,20,RU,2019-03-19 03:16:31,89,68.54,146.19,-23.54,2.07
101,Salalah,0,OM,2019-03-19 01:50:00,15,17.01,54.1,28.0,5.7
102,Karaton,40,ID,2019-03-19 03:13:22,74,-6.34,106.1,30.0,6.7
103,Riachao das Neves,0,BR,2019-03-19 03:16:32,89,-11.75,-44.91,21.16,1.22
104,Aras,8,YE,2019-03-19 03:16:33,77,14.28,44.38,5.66,1.17
105,Kandry,36,RU,2019-03-19 03:16:33,80,54.55,54.1,-5.64,0.97
106,Tadine,76,NC,2019-03-19 03:16:34,92,-21.55,167.88,27.21,6.57
107,Arlit,36,NE,2019-03-19 03:12:35,52,18.74,7.39,21.56,1.72
108,Camabatela,68,AO,2019-03-19 03:16:34,98,-8.19,15.37,19.86,1.17
109,Nortelandia,12,BR,2019-03-19 03:16:34,89,-14.45,-56.8,25.16,1.12
110,Constitucion,20,MX,2019-03-19 03:10:17,46,23.99,-104.67,16.0,2.6
111,Zhuhai,0,CN,2019-03-19 02:00:00,25,40.71,112.04,11.0,2.0
112,Oxchuc,88,MX,2019-03-19 03:16:35,93,16.78,-92.34,15.06,0.87
113,Carnarvon,0,ZA,2019-03-19 03:16:35,84,-30.97,22.13,10.16,1.32
114,Kodiak,20,US,2019-03-19 03:16:15,74,39.95,-94.76,6.0,1.5
115,Padang,0,ID,2019-03-19 02:00:00,74,-0.92,100.36,29.0,1.5
116,Obala,40,CM,2019-03-19 03:00:00,94,4.17,11.53,21.0,1.0
117,Ust-Maya,0,RU,2019-03-19 03:16:36,55,60.42,134.54,-12.79,1.52
118,Yenagoa,8,NG,2019-03-19 03:16:37,93,4.92,6.26,25.11,2.97
119,Shingu,75,JP,2019-03-19 02:00:00,76,33.72,135.99,12.0,3.6
120,Laem Sing,20,TH,2019-03-19 03:15:25,74,12.48,102.07,34.44,1.0
121,Port Elizabeth,1,US,2019-03-19 03:11:47,70,39.31,-74.98,4.0,2.52
122,Kjollefjord,24,NO,2019-03-19 03:16:38,80,70.95,27.35,-5.14,2.57
123,Masvingo,92,ZW,2019-03-19 03:16:39,99,-20.08,30.83,17.61,1.67
124,Narsaq,0,GL,2019-03-19 02:50:00,85,60.91,-46.05,-4.0,7.2
125,Egvekinot,32,RU,2019-03-19 03:16:40,59,66.32,-179.17,-22.29,1.87
126,Ancud,20,CL,2019-03-19 02:00:00,75,-41.87,-73.83,8.0,1.5
127,Fortuna,20,ES,2019-03-19 03:16:26,76,38.18,-1.13,11.11,2.1
128,Lebu,0,ET,2019-03-19 03:16:41,81,8.96,38.73,5.51,1.37
129,Bubaque,0,GW,2019-03-19 03:16:41,100,11.28,-15.83,24.31,6.37
130,Port-Gentil,76,GA,2019-03-19 03:16:41,100,-0.72,8.78,26.01,3.07
131,Boa Vista,0,BR,2019-03-19 03:00:00,45,2.82,-60.67,29.0,4.1
132,Saskylakh,36,RU,2019-03-19 03:16:43,66,71.97,114.09,-25.99,1.87
133,Sinnamary,80,GF,2019-03-19 03:16:43,98,5.38,-52.96,25.66,4.02
134,Namibe,0,AO,2019-03-19 03:16:43,100,-15.19,12.15,24.51,4.12
135,Kaniama,48,CD,2019-03-19 03:16:44,95,-7.57,24.18,20.11,0.97
136,Farafangana,92,MG,2019-03-19 03:16:44,100,-22.82,47.83,25.31,0.22
137,Thompson,40,CA,2019-03-19 02:00:00,74,55.74,-97.86,1.0,0.97
138,Campina Verde,8,BR,2019-03-19 03:16:44,86,-19.54,-49.49,22.86,1.22
139,Hare Bay,20,CA,2019-03-19 03:12:42,67,48.86,-53.99,-7.0,4.6
140,Arica,0,CL,2019-03-19 02:00:00,64,-18.48,-70.32,21.0,1.0
141,Hay River,75,CA,2019-03-19 02:00:00,49,60.82,-115.79,9.0,4.1
142,Arraial do Cabo,20,BR,2019-03-19 02:00:00,83,-22.97,-42.02,26.0,2.6
143,Darhan,76,MN,2019-03-19 03:16:46,49,49.49,105.92,-5.09,6.67
144,Geraldton,75,CA,2019-03-19 02:00:00,63,49.72,-86.95,-2.0,3.1
145,North Bend,1,US,2019-03-19 03:16:36,82,43.41,-124.22,15.0,1.5
146,Mulege,0,MX,2019-03-19 03:16:46,56,26.88,-111.98,15.21,0.37
147,Camacha,75,PT,2019-03-19 02:30:00,67,33.08,-16.33,15.0,4.6
148,Atambua,56,ID,2019-03-19 03:16:47,100,-9.11,124.89,26.16,1.67
149,Kahului,20,US,2019-03-19 03:16:36,56,20.89,-156.47,25.0,8.7
150,Lichinga,36,MZ,2019-03-19 03:16:47,78,-13.3,35.25,18.96,2.77
151,Teeli,0,RU,2019-03-19 03:16:48,57,51.01,90.2,-14.04,1.37
152,Port Lincoln,0,AU,2019-03-19 03:16:48,87,-34.72,135.86,20.11,4.02
153,Biak,0,ID,2019-03-19 03:16:48,65,-0.91,122.88,31.86,0.67
154,Poum,20,MK,2019-03-19 03:16:48,88,41.28,20.71,-0.59,1.12
155,Wonthaggi,68,AU,2019-03-19 03:15:59,81,-38.6,145.59,26.67,1.87
156,Castro,20,CL,2019-03-19 02:00:00,75,-42.48,-73.76,8.0,1.5
157,Pisco,0,PE,2019-03-19 02:00:00,77,-13.71,-76.2,21.0,7.7
158,Ekhabi,56,RU,2019-03-19 03:16:50,96,53.51,142.97,-9.94,7.82
159,Ribeira Grande,0,PT,2019-03-19 03:16:50,98,38.52,-28.7,15.91,5.72
160,Goderich,80,CA,2019-03-19 03:13:36,76,43.74,-81.71,-0.57,3.13
161,Lavras,20,BR,2019-03-19 03:16:50,95,-21.24,-45.0,18.91,0.87
162,San Felipe,0,CL,2019-03-19 03:16:22,50,-32.75,-70.73,18.33,1.02
163,Diffa,24,NE,2019-03-19 03:16:51,20,13.32,12.61,25.71,4.82
164,Port Hardy,20,CA,2019-03-19 02:00:00,58,50.7,-127.42,13.0,1.02
165,Nokaneng,32,BW,2019-03-19 03:16:52,59,-19.66,22.19,23.21,1.27
166,Baranchinskiy,56,RU,2019-03-19 03:16:22,82,58.16,59.7,-5.94,0.97
167,Chicama,20,PE,2019-03-19 02:00:00,83,-7.84,-79.15,22.0,5.7
168,Chokurdakh,36,RU,2019-03-19 03:16:52,74,70.62,147.9,-23.94,2.72
169,Ruwi,0,OM,2019-03-19 01:50:00,64,23.6,58.55,21.0,2.6
170,Ostrovnoy,92,RU,2019-03-19 03:16:53,92,68.05,39.51,-1.59,3.67
171,Zhigansk,0,RU,2019-03-19 03:16:53,62,66.77,123.37,-21.99,1.77
172,Iqaluit,5,CA,2019-03-19 03:12:40,67,63.75,-68.52,-30.0,2.6
173,Alexandria,1,US,2019-03-19 03:12:40,54,31.31,-92.44,13.0,1.5
174,Klaksvik,92,FO,2019-03-19 02:50:00,100,62.23,-6.59,7.0,6.7
175,Viedma,56,AR,2019-03-19 03:12:03,78,-40.81,-62.99,7.71,1.37
176,Nagato,75,JP,2019-03-19 03:12:51,87,34.35,131.14,14.44,1.5
177,Impfondo,0,CD,2019-03-19 03:16:55,95,1.62,18.06,23.41,1.17
178,Sungairaya,24,ID,2019-03-19 03:16:55,67,0.7,108.9,30.81,2.02
179,Katsuura,75,JP,2019-03-19 02:51:12,100,33.93,134.5,10.0,4.1
180,Birnin Kebbi,0,NG,2019-03-19 03:16:55,35,12.45,4.2,21.71,2.32
181,Chara,40,GR,2019-03-19 03:13:25,100,39.42,22.43,11.11,0.42
182,Laredo,90,US,2019-03-19 03:15:05,48,27.51,-99.51,18.0,1.5
183,Jaora,0,IN,2019-03-19 03:16:56,34,23.64,75.13,22.71,2.22
184,Kattivakkam,20,IN,2019-03-19 02:33:31,78,13.22,80.32,28.0,3.1
185,Lac du Bonnet,68,CA,2019-03-19 03:15:43,89,50.25,-96.06,-1.67,1.42
186,Boende,36,CD,2019-03-19 03:16:57,88,-0.28,20.88,24.31,1.02
187,Tshikapa,8,CD,2019-03-19 03:16:57,100,-6.42,20.79,22.16,0.97
188,San Juan,20,PR,2019-03-19 03:10:47,69,18.47,-66.12,24.0,1.5
189,Upernavik,24,GL,2019-03-19 03:16:59,100,72.79,-56.15,-24.49,1.47
190,Hobyo,100,SO,2019-03-19 03:16:59,86,5.35,48.53,25.76,6.17
191,Avera,1,US,2019-03-19 03:15:27,23,33.19,-82.53,13.0,5.1
192,Cayenne,40,GF,2019-03-19 02:30:00,88,4.94,-52.33,25.0,3.12
193,Sibolga,0,ID,2019-03-19 03:14:58,83,1.74,98.78,26.11,0.77
194,Taltal,0,CL,2019-03-19 03:17:00,97,-25.41,-70.49,12.96,0.32
195,Morehead,1,US,2019-03-19 03:16:55,40,38.18,-83.43,4.0,1.32
196,Eyl,92,SO,2019-03-19 03:17:01,100,7.98,49.82,24.96,5.47
197,Genhe,92,CN,2019-03-19 03:17:01,75,50.78,121.52,-6.34,7.17
198,Kaeo,32,NZ,2019-03-19 03:08:04,73,-35.1,173.78,20.56,4.02
199,Port Blair,20,IN,2019-03-19 02:00:00,78,11.67,92.75,28.0,0.5
200,Ingham,92,AU,2019-03-19 03:17:02,100,-18.65,146.16,24.51,2.67
201,Jalu,0,LY,2019-03-19 03:17:02,56,29.03,21.55,11.51,1.22
202,Aripuana,32,BR,2019-03-19 03:17:02,93,-9.17,-60.63,25.21,0.87
203,Corinto,76,BR,2019-03-19 03:17:03,96,-18.36,-44.46,20.86,2.42
204,Acapulco,5,MX,2019-03-19 01:45:00,83,16.86,-99.88,27.0,2.6
205,Saint George,40,GR,2019-03-19 03:13:25,100,39.45,22.34,11.11,0.42
206,Richards Bay,44,ZA,2019-03-19 03:17:04,95,-28.77,32.06,22.21,1.42
207,Lyambir,76,RU,2019-03-19 03:17:04,80,54.28,45.12,-5.04,3.32
208,Cerro Largo,44,BR,2019-03-19 03:17:04,93,-28.15,-54.74,20.51,1.97
209,Victoria,75,BN,2019-03-19 02:30:00,79,5.28,115.24,32.0,1.0
210,Sri Aman,75,MY,2019-03-19 02:00:00,78,1.24,111.46,28.0,1.5
211,Putina,75,PE,2019-03-19 02:00:00,65,-14.91,-69.87,8.0,3.1
212,Veraval,88,FR,2019-03-19 03:16:19,100,49.65,0.71,8.0,1.5
213,Puerto Escondido,20,MX,2019-03-19 01:45:00,69,15.86,-97.07,28.0,1.82
214,Krasnoarmeysk,75,RU,2019-03-19 03:06:10,86,56.12,38.15,3.33,4.0
215,Darnah,0,LY,2019-03-19 03:17:06,97,32.77,22.64,16.26,0.72
216,Muskogee,75,US,2019-03-19 03:17:03,30,35.75,-95.37,14.0,3.1
217,Victoriaville,1,CA,2019-03-19 03:16:52,41,46.06,-71.95,-7.0,1.0
218,Loa Janan,24,ID,2019-03-19 03:17:07,76,-0.58,117.09,29.51,1.37
219,Lokosovo,0,RU,2019-03-19 03:17:07,85,61.13,74.84,-9.89,1.67
220,Coolum Beach,0,AU,2019-03-19 03:10:34,54,-26.53,153.09,32.22,0.77
221,San Isidro,20,PH,2019-03-19 03:17:09,72,16.74,121.63,28.26,1.92
222,Nanortalik,0,GL,2019-03-19 03:17:09,100,60.14,-45.24,-4.79,18.67
223,Tongzi,92,CN,2019-03-19 03:17:10,99,28.78,105.09,14.81,1.97
224,Marystown,80,CA,2019-03-19 03:12:24,100,47.17,-55.16,-4.44,5.72
225,Kavaratti,0,IN,2019-03-19 03:17:10,100,10.57,72.64,27.71,3.27
226,Ironton,1,US,2019-03-19 03:17:05,44,38.54,-82.68,3.89,1.37
227,Provideniya,75,RU,2019-03-19 02:30:00,66,64.42,-173.23,-11.0,2.0
228,Bay Roberts,75,CA,2019-03-19 03:17:01,73,47.58,-53.28,-4.44,5.1
229,Sao Francisco do Sul,75,BR,2019-03-19 03:16:05,88,-26.24,-48.64,25.0,1.5
230,Yongan,48,CN,2019-03-19 03:17:11,42,39.7,113.69,13.11,1.57
231,Tibiri,8,NE,2019-03-19 03:17:11,26,13.59,7.06,23.86,5.17
232,Xiaoweizhai,64,CN,2019-03-19 03:17:12,78,26.23,107.51,18.51,5.22
233,Nome,1,US,2019-03-19 03:16:42,54,30.04,-94.42,13.89,2.37
234,Nuqui,75,CO,2019-03-19 02:00:00,94,5.71,-77.27,26.0,1.17
235,Dingle,48,PH,2019-03-19 03:17:12,70,11.0,122.67,28.31,6.37
236,Den Helder,20,NL,2019-03-19 03:17:06,93,52.96,4.76,5.0,1.5
237,Shimoda,75,JP,2019-03-19 03:15:11,100,34.7,138.93,18.33,7.2
238,Pangnirtung,20,CA,2019-03-19 03:17:13,81,66.15,-65.72,-28.59,5.67
239,Sur,68,OM,2019-03-19 03:17:13,100,22.57,59.53,21.11,3.62
240,Ganj Muradabad,0,IN,2019-03-19 03:15:04,45,26.97,80.18,22.31,3.22
241,Didao,8,CN,2019-03-19 03:17:14,33,45.35,130.84,8.91,3.57
242,Half Moon Bay,90,US,2019-03-19 03:17:07,93,37.46,-122.43,18.0,3.1
243,San Antonio,0,CL,2019-03-19 02:00:00,81,-33.58,-71.61,11.0,1.0
244,Loandjili,75,CG,2019-03-19 02:00:00,94,-4.77,11.87,27.0,1.5
245,Cosamaloapan,56,MX,2019-03-19 03:17:15,70,18.36,-95.8,21.91,5.12
246,Tura,48,IN,2019-03-19 03:17:15,82,25.52,90.21,19.96,1.52
247,Kayerkan,68,RU,2019-03-19 03:17:16,88,69.35,87.76,-13.19,6.57
248,Lar,0,IR,2019-03-19 02:00:00,87,27.66,54.32,8.0,0.87
249,Inhambane,76,MZ,2019-03-19 03:17:16,100,-23.87,35.38,24.71,3.02
250,Northam,80,GB,2019-03-19 03:17:08,93,51.04,-4.21,8.33,2.6
251,Vigrestad,0,NO,2019-03-19 03:16:39,97,58.57,5.7,1.67,1.0
252,Grand-Lahou,0,CI,2019-03-19 03:17:17,85,5.24,-5.0,26.41,3.12
253,Visnes,0,NO,2019-03-19 03:16:28,86,59.36,5.22,1.67,1.5
254,Panguna,36,PG,2019-03-19 03:17:18,92,-6.32,155.48,26.66,1.57
255,Uruzgan,56,AF,2019-03-19 03:17:18,96,32.93,66.63,-0.79,0.27
256,Rincon,1,US,2019-03-19 03:13:15,57,32.3,-81.24,15.0,4.02
257,Parabel,76,RU,2019-03-19 03:17:18,89,58.71,81.5,-5.54,1.57
258,Tarauaca,12,BR,2019-03-19 03:17:18,90,-8.16,-70.77,25.61,1.37
259,Muhos,90,FI,2019-03-19 03:16:32,96,64.81,26.0,0.56,2.1
260,Ust-Kulom,36,RU,2019-03-19 03:17:19,94,61.69,53.69,-1.89,2.67
261,Svecha,80,RU,2019-03-19 03:17:20,96,58.28,47.52,-1.74,3.47
262,Birin,0,SY,2019-03-19 03:17:20,86,35.01,36.67,3.51,1.47
263,Mahibadhoo,36,MV,2019-03-19 03:17:20,100,3.78,72.97,28.66,2.82
264,Catuday,0,PH,2019-03-19 03:17:21,79,16.29,119.81,29.86,2.57
265,Kamenka,68,RU,2019-03-19 02:54:38,79,53.19,44.05,0.0,3.17
266,Syamzha,92,RU,2019-03-19 03:17:21,95,60.02,41.06,0.86,7.72
267,Bandarbeyla,92,SO,2019-03-19 03:17:21,100,9.49,50.81,25.21,4.37
268,Sorong,8,ID,2019-03-19 03:17:22,95,-0.86,131.25,29.06,2.12
269,Norsup,64,VU,2019-03-19 03:17:22,79,-16.07,167.38,29.71,2.57
270,Sao Jose da Coroa Grande,44,BR,2019-03-19 03:17:22,95,-8.9,-35.15,25.36,2.77
271,Saint-Georges,0,CA,2019-03-19 03:02:05,55,46.12,-70.67,-7.78,0.89
272,Nakamura,75,JP,2019-03-19 03:14:17,62,35.17,136.87,16.67,2.6
273,Henties Bay,0,NA,2019-03-19 03:02:11,92,-22.12,14.28,16.67,1.34
274,Rocha,0,UY,2019-03-19 03:17:24,89,-34.48,-54.34,16.81,2.77
275,Barauna,88,BR,2019-03-19 03:17:24,82,-14.07,-42.49,24.06,1.37
276,Okahandja,24,NA,2019-03-19 03:00:44,48,-21.98,16.91,19.44,2.6
277,Anadyr,40,RU,2019-03-19 03:13:05,69,64.73,177.51,-23.89,9.0
278,Alekseyevsk,24,RU,2019-03-19 03:17:25,59,57.84,108.35,-7.69,1.62
279,Cidreira,8,BR,2019-03-19 03:17:26,96,-30.17,-50.22,20.61,5.57
280,Thanh Hoa,75,VN,2019-03-19 02:30:00,58,10.21,106.33,31.0,5.1
281,Leningradskiy,64,RU,2019-03-19 03:17:26,96,69.38,178.42,-17.99,16.42
282,Burnie,24,AU,2019-03-19 03:16:55,60,-41.05,145.91,27.22,2.68
283,Sawakin,0,SD,2019-03-19 02:00:00,78,19.1,37.33,22.0,3.6
284,York,75,GB,2019-03-19 03:17:04,93,53.96,-1.08,7.78,1.5
285,Valparaiso,40,US,2019-03-19 03:12:32,74,41.47,-87.06,3.0,1.5
286,Rio Grande,64,BR,2019-03-19 03:17:28,98,-32.03,-52.1,21.66,5.22
287,Topolobampo,5,MX,2019-03-19 03:10:16,56,25.6,-109.05,20.0,4.6
288,Mapastepec,32,MX,2019-03-19 03:14:56,74,15.44,-92.9,23.71,0.97
289,Mount Isa,0,AU,2019-03-19 02:30:00,25,-20.73,139.49,36.0,3.6
290,Vao,80,EE,2019-03-19 03:17:29,97,59.1,26.19,1.31,4.02
291,Pacific Grove,20,US,2019-03-19 03:15:37,81,36.62,-121.92,16.11,4.1
292,West Wendover,1,US,2019-03-19 01:56:00,37,40.74,-114.07,11.0,1.12
293,Prachuap Khiri Khan,36,TH,2019-03-19 03:17:29,69,11.81,99.79,29.81,1.47
294,Karratha,0,AU,2019-03-19 03:12:34,34,-20.74,116.85,36.01,3.47
295,Verkhnevilyuysk,8,RU,2019-03-19 03:17:30,55,63.45,120.31,-16.04,1.62
296,Brigantine,1,US,2019-03-19 03:14:11,69,39.41,-74.36,5.0,1.37
297,Lensk,56,RU,2019-03-19 03:17:31,71,60.71,114.91,-10.09,1.57
298,Chinsali,76,ZM,2019-03-19 03:17:31,96,-10.55,32.07,16.96,2.22
299,Ust-Koksa,8,RU,2019-03-19 03:17:31,66,50.27,85.62,-13.19,1.07
300,Tautira,20,PF,2019-03-19 03:13:01,66,-17.73,-149.15,31.0,4.6
301,Kutum,0,SD,2019-03-19 03:17:32,28,14.2,24.66,11.06,3.02
302,Orbetello,40,IT,2019-03-19 03:16:27,81,42.44,11.21,8.0,3.1
303,San Benito Abad,64,CO,2019-03-19 03:17:33,78,8.93,-75.03,27.16,4.02
304,Campo Formoso,0,BR,2019-03-19 03:17:33,71,-10.51,-40.32,21.66,1.47
305,Atar,24,MR,2019-03-19 03:17:33,28,20.52,-13.05,16.21,3.32
306,Acajutla,0,SV,2019-03-19 03:16:47,78,13.59,-89.83,22.78,2.02
307,Rawson,44,AR,2019-03-19 03:17:34,35,-43.3,-65.11,11.81,4.02
308,Jining,0,CN,2019-03-19 02:59:42,21,35.41,116.58,28.33,6.92
309,San Quintin,0,PH,2019-03-19 03:17:34,57,17.54,120.52,29.71,1.17
310,Leh,48,IN,2019-03-19 03:17:35,77,34.16,77.58,-17.09,0.37
311,Porto Novo,40,BR,2019-03-19 03:00:00,100,-23.68,-45.44,24.0,1.32
312,Doha,0,QA,2019-03-19 02:00:00,55,25.29,51.53,19.0,2.6
313,Boyolangu,36,ID,2019-03-19 03:17:35,90,-8.09,111.9,27.06,1.77
314,Baturaja,64,ID,2019-03-19 03:17:35,92,-4.12,104.17,27.16,2.07
315,Inverell,0,AU,2019-03-19 03:15:14,35,-29.78,151.11,30.0,1.79
316,Aksarka,24,RU,2019-03-19 03:17:36,68,66.56,67.8,-13.49,1.87
317,Atbasar,0,KZ,2019-03-19 03:17:36,77,51.81,68.36,-12.94,4.92
318,Banyo,8,CM,2019-03-19 03:17:36,53,6.75,11.81,17.96,0.62
319,Yulara,0,AU,2019-03-19 02:00:00,10,-25.24,130.99,35.0,6.2
320,Sao Filipe,8,CV,2019-03-19 03:17:37,96,14.9,-24.5,21.76,4.97
321,Mehran,0,IR,2019-03-19 02:00:00,86,33.12,46.17,1.0,2.1
322,Kieta,12,PG,2019-03-19 03:17:38,100,-6.22,155.63,27.06,1.97
323,San Policarpo,92,PH,2019-03-19 03:17:38,94,12.18,125.51,26.46,6.62
324,Vardo,1,US,2019-03-19 03:17:15,43,39.62,-77.74,4.0,3.1
325,Blind River,1,CA,2019-03-19 02:35:00,100,46.19,-82.96,-5.0,1.02
326,Kushiro,20,JP,2019-03-19 02:00:00,56,43.11,144.15,7.0,7.7
327,Esna,0,RO,2019-03-19 03:17:39,79,45.2,27.57,8.16,3.87
328,Beloha,20,MG,2019-03-19 03:17:39,93,-25.17,45.06,20.86,1.22
329,Aksha,80,RU,2019-03-19 03:17:39,43,50.28,113.29,-1.69,6.57
330,Sorland,68,NO,2019-03-19 03:17:40,100,67.67,12.69,3.56,4.47
331,Husavik,48,CA,2019-03-19 03:15:43,89,50.56,-96.99,-1.67,1.37
332,Manzhouli,32,CN,2019-03-19 03:17:40,49,49.6,117.43,3.46,6.27
333,Manokwari,32,ID,2019-03-19 03:17:40,94,-0.87,134.08,28.61,2.67
334,Bud,64,NO,2019-03-19 03:16:16,80,62.91,6.91,3.0,3.1
335,Kenai,90,US,2019-03-19 03:16:04,49,60.55,-151.26,9.0,3.6
336,Mount Gambier,75,AU,2019-03-19 02:00:00,60,-37.83,140.78,24.0,5.1
337,Ginir,0,ET,2019-03-19 03:17:42,77,7.14,40.71,11.41,0.72
338,Gornyatskiy,32,RU,2019-03-19 03:17:42,81,48.29,40.96,-0.69,1.52
339,Yaan,12,NG,2019-03-19 03:17:42,77,7.38,8.57,26.41,4.67
340,Kananga,12,CD,2019-03-19 03:17:43,95,-5.9,22.41,21.81,1.12
341,Codrington,0,AU,2019-03-19 03:16:46,48,-28.95,153.24,32.78,2.1
342,Phan Thiet,0,VN,2019-03-19 03:17:43,78,10.93,108.1,29.31,7.07
343,Haikou,75,CN,2019-03-19 02:00:00,83,20.04,110.34,26.0,4.0
344,Byron Bay,0,AU,2019-03-19 03:16:46,58,-28.65,153.62,32.78,3.6
345,Menongue,68,AO,2019-03-19 03:17:44,85,-14.66,17.68,19.46,1.32
346,Quatre Cocos,75,MU,2019-03-19 03:14:04,83,-20.21,57.76,27.0,4.1
347,Olinda,75,EC,2019-03-19 03:15:18,94,-2.03,-79.75,26.0,1.5
348,Jiazi,75,CN,2019-03-19 02:00:00,83,19.61,110.49,26.0,4.0
349,Along,100,IN,2019-03-19 03:17:45,99,28.17,94.8,11.81,0.62
350,Gladstone,20,AU,2019-03-19 03:14:28,62,-23.84,151.26,32.22,5.1
351,Nantucket,1,US,2019-03-19 03:16:01,85,41.28,-70.1,1.11,2.67
352,Ventspils,90,LV,2019-03-19 02:50:00,93,57.39,21.56,2.0,5.7
353,Zemetchino,88,RU,2019-03-19 03:17:46,95,53.5,42.62,-1.59,4.22
354,Fairbanks,75,US,2019-03-19 03:15:55,49,64.84,-147.72,8.0,3.6
355,Sungaipenuh,20,ID,2019-03-19 03:17:46,78,-2.08,101.38,24.71,0.07
356,Mogadishu,44,SO,2019-03-19 03:17:47,100,2.04,45.34,27.46,8.47
357,Hereford,20,GB,2019-03-19 03:17:25,94,52.06,-2.72,7.78,1.52
358,Rio Gallegos,20,AR,2019-03-19 03:17:47,99,-51.62,-69.22,7.11,8.47
359,Plonsk,0,PL,2019-03-19 03:13:46,74,52.62,20.38,4.44,5.1
360,Pont-Saint-Esprit,0,FR,2019-03-19 03:17:45,56,44.25,4.65,7.0,4.1
361,San Patricio,12,PY,2019-03-19 03:17:48,92,-26.98,-56.83,19.51,0.52
362,Kollam,20,IN,2019-03-19 02:30:00,74,8.88,76.6,29.0,2.1
363,Los Llanos de Aridane,0,ES,2019-03-19 03:17:02,59,28.66,-17.92,18.0,4.6
364,Key West,90,US,2019-03-19 03:16:24,80,47.93,-96.78,0.0,2.6
365,Danilov,75,RU,2019-03-19 02:30:00,95,58.19,40.17,2.0,4.0
366,Komsomolskiy,76,RU,2019-03-19 03:17:49,89,67.55,63.78,-3.64,5.52
367,Pocone,0,BR,2019-03-19 03:17:49,89,-16.26,-56.62,25.66,1.22
368,Wicklow,75,IE,2019-03-19 03:17:10,93,53.0,-6.42,8.33,3.1
369,Tezu,20,IN,2019-03-19 03:17:50,75,27.93,96.16,15.41,0.52
370,Auki,0,NG,2019-03-19 03:17:50,27,12.18,6.51,21.81,4.77
371,Nichlaul,0,IN,2019-03-19 03:17:50,31,27.32,83.73,22.06,1.42
372,Dolores,0,AR,2019-03-19 03:17:50,72,-36.31,-57.68,14.51,5.12
373,Victor Harbor,0,AU,2019-03-19 03:17:06,41,-35.55,138.62,29.44,3.13
374,Umm Kaddadah,0,SD,2019-03-19 03:17:51,20,13.6,26.69,15.31,4.47
375,Katangli,80,RU,2019-03-19 03:17:51,88,51.71,143.23,-8.19,12.92
376,Tiksi,0,RU,2019-03-19 03:17:51,78,71.64,128.87,-24.74,2.07
377,Saldanha,0,PT,2019-03-19 03:17:52,91,41.42,-6.55,-1.04,2.07
378,Alofi,75,NU,2019-03-19 02:00:00,78,-19.06,-169.92,28.0,3.6
379,Eldorado,0,MX,2019-03-19 03:17:20,65,24.32,-107.36,17.78,1.79
380,Barcelos,0,PT,2019-03-19 03:15:17,81,41.53,-8.62,9.44,0.82
381,Galle,1,US,2019-03-19 03:17:51,50,29.74,-97.91,14.44,2.6
382,New Haven,1,US,2019-03-19 03:15:29,68,41.31,-72.93,2.22,1.52
383,Sambava,24,MG,2019-03-19 03:17:53,100,-14.27,50.17,26.31,5.12
384,Rexburg,1,US,2019-03-19 03:10:43,48,43.82,-111.79,5.0,1.67
385,Gondar,0,PT,2019-03-19 03:17:36,65,41.82,-8.78,9.44,5.1
386,Guadalupe y Calvo,0,MX,2019-03-19 03:17:54,62,26.09,-106.96,7.91,0.87
387,Kouango,8,CF,2019-03-19 03:17:54,81,4.99,19.98,18.86,1.22
388,Goundam,0,ML,2019-03-19 03:17:55,39,16.42,-3.66,20.91,2.87
389,Saraland,1,US,2019-03-19 03:17:16,47,30.82,-88.07,14.44,4.22
390,Sembakung,40,ID,2019-03-19 02:00:00,70,3.82,117.25,30.0,2.6
391,Santa Maria,20,BR,2019-03-19 02:00:00,100,-29.69,-53.81,21.0,1.0
392,Tuatapere,24,NZ,2019-03-19 03:10:06,74,-46.13,167.69,19.44,1.79
393,Lakatoro,64,VU,2019-03-19 03:17:57,79,-16.11,167.42,29.71,2.57
394,Vila Velha,40,BR,2019-03-19 03:09:28,94,-3.71,-38.6,25.0,1.0
395,Marawi,92,PH,2019-03-19 03:01:26,94,8.0,124.29,23.89,0.45
396,Faanui,0,PF,2019-03-19 03:17:57,100,-16.48,-151.75,28.91,1.57
397,Bilma,0,NE,2019-03-19 03:17:58,40,18.69,12.92,14.06,1.27
398,Hibbing,80,US,2019-03-19 03:02:37,88,47.43,-92.94,1.0,1.5
399,Ramshir,0,IR,2019-03-19 02:00:00,76,30.89,49.41,10.0,2.1
400,Perth,75,GB,2019-03-19 03:17:25,100,56.4,-3.43,6.67,2.1
401,Sfantu Gheorghe,0,RO,2019-03-19 03:16:54,100,44.65,26.83,8.33,6.7
402,Pavlodar,0,KZ,2019-03-19 02:30:00,92,52.28,76.96,-8.0,2.0
403,Samsun,20,TR,2019-03-19 02:50:00,96,41.29,36.33,1.0,1.5
404,Chulumani,64,BO,2019-03-19 03:17:59,98,-16.41,-67.53,11.71,0.87
405,Chowchilla,1,US,2019-03-19 03:17:52,40,37.12,-120.26,24.0,1.17
406,Mana,40,RS,2019-03-19 02:30:00,86,43.52,20.24,6.0,1.0
407,Sochaczew,0,PL,2019-03-19 03:16:17,74,52.23,20.24,4.44,5.1
408,San Vicente,0,SV,2019-03-19 03:16:47,69,13.64,-88.78,27.0,2.1
409,Kyakhta,44,RU,2019-03-19 03:18:02,50,50.35,106.45,-3.24,6.12
410,Haimen,0,CN,2019-03-19 03:17:37,53,31.87,121.18,21.11,4.62
411,Kavieng,48,PG,2019-03-19 03:18:03,95,-2.57,150.8,30.21,4.57
412,Alice Springs,0,AU,2019-03-19 02:30:00,11,-23.7,133.88,35.0,4.6
413,Polson,1,US,2019-03-19 03:15:05,55,47.69,-114.16,4.0,0.82
414,Tokur,12,RU,2019-03-19 03:18:03,46,53.13,132.9,-8.39,1.42
415,Guerrero Negro,0,MX,2019-03-19 03:18:04,72,27.97,-114.04,14.11,3.67
416,Sunnyside,56,CA,2019-03-19 03:15:03,79,47.86,-53.92,-6.11,0.45
417,Sao Joao da Barra,64,BR,2019-03-19 03:18:05,97,-21.64,-41.05,28.71,7.57
418,Caravelas,0,BR,2019-03-19 03:18:05,99,-17.73,-39.27,28.71,7.72
419,Hervey Bay,40,AU,2019-03-19 03:15:09,52,-25.3,152.85,31.11,3.6
420,Willowmore,48,ZA,2019-03-19 03:18:05,96,-33.3,23.49,15.51,1.27
421,Oudtshoorn,90,ZA,2019-03-19 03:00:00,94,-33.59,22.2,20.0,0.5
422,Orsta,20,NO,2019-03-19 03:16:16,80,62.2,6.13,2.0,3.1
423,Taywarah,0,AF,2019-03-19 03:18:06,69,33.35,64.42,-6.84,1.22
424,Yuanping,56,CN,2019-03-19 03:18:06,45,38.72,112.71,12.11,1.42
425,Naze,40,NG,2019-03-19 02:00:00,88,5.43,7.07,26.0,3.62
426,Savonlinna,90,FI,2019-03-19 03:10:06,91,61.87,28.88,1.67,2.1
427,Turkmenabat,90,TM,2019-03-19 02:00:00,76,39.09,63.58,11.0,6.2
428,Balabac,24,PH,2019-03-19 03:18:08,95,7.99,117.06,28.51,4.52
429,Tommot,56,RU,2019-03-19 03:18:08,59,58.97,126.27,-11.29,1.87
430,Acari,88,BR,2019-03-19 03:18:08,95,-6.44,-36.64,22.41,1.07
431,Poso,0,ID,2019-03-19 03:18:09,95,-1.4,120.75,29.31,1.97
432,Lazaro Cardenas,20,MX,2019-03-19 03:16:02,32,28.39,-105.62,14.0,4.6
433,Ponta Delgada,20,PT,2019-03-19 03:17:34,76,37.73,-25.67,12.78,3.6
434,Gushikawa,75,JP,2019-03-19 03:13:05,64,26.35,127.87,22.0,6.7
435,Marsh Harbour,92,BS,2019-03-19 03:18:10,100,26.54,-77.06,22.46,4.37
436,Gazojak,24,TM,2019-03-19 03:18:10,84,41.19,61.4,10.16,4.32
437,Marsa Matruh,0,EG,2019-03-19 02:00:00,87,31.35,27.25,10.0,2.32
438,Adrar,0,DZ,2019-03-19 02:00:00,17,27.87,-0.29,16.0,3.1
439,Knysna,90,ZA,2019-03-19 02:23:00,94,-34.04,23.05,20.0,0.5
440,Indramayu,8,ID,2019-03-19 03:18:11,84,-4.05,103.78,26.21,1.32
441,Aizkraukle,88,LV,2019-03-19 03:14:28,88,56.6,25.25,3.33,3.58
442,Watsa,20,CD,2019-03-19 03:18:11,95,3.04,29.53,18.31,1.17
443,Qiongshan,75,CN,2019-03-19 02:00:00,83,20.01,110.35,26.0,4.0
444,Lamar,75,US,2019-03-19 03:00:34,30,38.09,-102.62,13.0,6.7
445,Ichhawar,0,IN,2019-03-19 02:30:00,45,23.03,77.02,19.0,1.5
446,Hami,64,CN,2019-03-19 03:18:12,53,42.84,93.51,5.46,4.12
447,Bintulu,75,MY,2019-03-19 02:00:00,79,3.17,113.03,29.0,1.5
448,Sabha,32,LY,2019-03-19 03:18:13,33,27.03,14.43,15.06,5.57
449,Araouane,20,ML,2019-03-19 03:18:13,14,18.9,-3.53,17.46,3.57
450,Calama,0,CL,2019-03-19 02:00:00,22,-22.46,-68.93,13.0,3.1
451,Sola,0,NO,2019-03-19 03:18:08,100,58.89,5.65,1.67,1.0
452,Kiunga,68,PG,2019-03-19 03:18:14,73,-6.12,141.3,28.56,2.77
453,Atasu,0,KZ,2019-03-19 03:18:14,72,48.68,71.64,-11.29,5.47
454,Fare,0,PF,2019-03-19 03:18:14,100,-16.7,-151.02,29.21,1.62
455,Isangel,75,VU,2019-03-19 02:00:00,66,-19.55,169.27,31.0,6.2
456,Pinheiro Machado,48,BR,2019-03-19 03:18:15,96,-31.58,-53.38,19.56,3.12
457,Akureyri,75,IS,2019-03-19 03:00:00,70,65.68,-18.09,6.0,5.7
458,Arawa,0,NG,2019-03-19 03:18:15,93,7.05,3.9,24.86,1.62
459,Talaya,0,RU,2019-03-19 03:15:33,79,55.79,84.89,-6.11,4.0
460,Bambous Virieux,75,MU,2019-03-19 03:14:04,83,-20.34,57.76,27.0,4.1
461,Kokoda,100,PG,2019-03-19 03:18:16,94,-8.88,147.74,19.91,0.87
462,San Borja,56,BO,2019-03-19 03:18:16,94,-14.86,-66.75,22.91,0.82
463,Kirakira,32,SB,2019-03-19 03:18:17,100,-10.46,161.92,28.41,4.42
464,Tecalitlan,5,MX,2019-03-19 01:42:00,60,19.47,-103.3,24.0,1.22
465,Meybod,0,IR,2019-03-19 02:30:00,41,32.25,54.02,6.0,1.32
466,Moron,88,VE,2019-03-19 03:18:17,94,10.49,-68.2,20.36,1.22
467,Bonneville,0,FR,2019-03-19 03:17:44,88,46.08,6.41,1.67,1.0
468,Plainview,1,US,2019-03-19 03:12:55,52,34.18,-101.71,11.67,3.1
469,Halifax,20,CA,2019-03-19 03:16:27,53,44.65,-63.58,-3.33,4.1
470,Tikapur,0,NP,2019-03-19 03:18:18,35,28.53,81.12,20.21,1.27
471,Weligama,8,LK,2019-03-19 03:18:18,98,5.97,80.42,27.06,3.62
472,Aleksandrovsk,0,RU,2019-03-19 03:16:31,75,59.16,57.56,-8.89,1.32
473,Inuvik,75,CA,2019-03-19 03:00:00,93,68.36,-133.71,0.0,3.1
474,Zhob,36,PK,2019-03-19 03:18:19,88,31.34,69.45,6.91,2.47
475,Peleduy,64,RU,2019-03-19 03:18:19,65,59.63,112.75,-9.04,2.02
476,Beringovskiy,8,RU,2019-03-19 03:18:20,100,63.05,179.32,-18.44,4.57
477,Makat,24,KZ,2019-03-19 03:18:20,97,47.65,53.35,0.71,4.02
478,Khirkiya,0,IN,2019-03-19 03:18:20,33,22.17,76.86,22.51,2.12
479,Severo-Yeniseyskiy,88,RU,2019-03-19 03:18:20,81,60.37,93.04,-4.89,1.47
480,Santiago del Estero,12,AR,2019-03-19 03:18:21,76,-27.8,-64.26,20.86,3.42
481,Sovetsk,88,RU,2019-03-19 03:18:21,91,55.08,21.89,2.66,6.52
482,Berlevag,68,NO,2019-03-19 03:18:21,100,70.86,29.09,-0.74,4.27
483,Fukagawa,75,JP,2019-03-19 02:00:00,82,43.72,142.05,4.0,5.7
484,Xingyi,68,CN,2019-03-19 03:18:21,55,24.19,102.82,19.26,4.82
485,Neuquen,40,AR,2019-03-19 02:00:00,23,-38.95,-68.06,16.0,9.3
486,Liuli,24,TZ,2019-03-19 03:18:22,100,-11.1,34.65,24.61,2.12
487,Gelibolu,0,TR,2019-03-19 02:50:00,100,40.41,26.67,8.0,2.1
488,Axim,0,GH,2019-03-19 03:18:22,98,4.87,-2.24,28.46,6.37
489,Naples,90,US,2019-03-19 03:17:03,77,26.14,-81.79,18.0,6.7
490,Mount Darwin,36,ZW,2019-03-19 03:18:23,93,-16.77,31.58,18.01,1.07
491,Maceio,0,BR,2019-03-19 03:00:00,94,-9.67,-35.74,24.0,2.1
492,Tynset,90,NO,2019-03-19 02:50:00,86,62.28,10.78,-3.0,9.3
493,Abha,5,SA,2019-03-19 02:00:00,58,18.22,42.5,16.0,3.1
494,Cuamba,44,MZ,2019-03-19 03:18:24,88,-14.8,36.54,21.71,3.47
495,Belmonte,0,PT,2019-03-19 03:17:03,65,40.36,-7.35,5.56,0.89
496,Cristinapolis,8,BR,2019-03-19 03:18:24,81,-11.48,-37.76,25.81,3.57
497,Cine,40,TR,2019-03-19 02:50:00,93,37.61,28.06,8.0,0.82
498,Palmer,90,US,2019-03-19 03:16:34,70,61.6,-149.11,6.11,9.8
499,Natitingou,0,BJ,2019-03-19 03:18:25,47,10.31,1.38,21.51,0.92
500,Airai,44,TL,2019-03-19 03:18:25,63,-8.93,125.41,27.31,0.97
501,Daru,68,SL,2019-03-19 03:18:26,93,7.99,-10.85,22.66,1.77
502,Aswan,0,EG,2019-03-19 02:00:00,69,24.09,32.9,17.0,3.1
503,Dunedin,0,NZ,2019-03-19 03:16:06,63,-45.87,170.5,19.44,3.58
504,Penzance,75,GB,2019-03-19 03:18:04,100,50.12,-5.53,10.0,2.1
505,Ivnya,0,RU,2019-03-19 03:15:34,87,51.06,36.14,4.0,4.0
506,Aklavik,75,CA,2019-03-19 03:00:00,89,68.22,-135.01,0.0,3.1
507,Ulagan,0,RU,2019-03-19 03:18:27,63,50.63,87.96,-14.34,1.32
508,Souillac,90,FR,2019-03-19 03:18:08,93,45.6,-0.6,7.22,2.6
509,Teguldet,76,RU,2019-03-19 03:18:28,79,57.31,88.17,-4.19,2.07
510,Antioquia,75,CO,2019-03-19 03:18:20,100,6.56,-75.83,17.0,1.0
511,Te Anau,0,NZ,2019-03-19 03:18:28,65,-45.41,167.72,21.16,1.42
512,Honiara,44,SB,2019-03-19 03:18:29,100,-9.43,159.96,26.11,0.92
513,Savannah Bight,0,HN,2019-03-19 03:18:29,94,16.45,-85.85,26.96,4.22
514,Dharmanagar,8,IN,2019-03-19 03:18:29,83,24.37,92.17,22.56,2.02
515,Makakilo City,75,US,2019-03-19 03:15:52,44,21.35,-158.09,26.0,5.1
516,Ritchie,0,ZA,2019-03-19 03:18:30,79,-29.03,24.6,11.91,1.27
517,Bonavista,24,CA,2019-03-19 03:18:30,100,48.65,-53.11,-4.79,5.32
518,Abu Dhabi,0,AE,2019-03-19 02:00:00,63,24.47,54.37,19.0,4.1
519,Liverpool,40,GB,2019-03-19 03:18:30,100,53.41,-2.98,8.33,3.6
520,Hun,36,BE,2019-03-19 03:18:14,79,50.34,4.87,1.0,0.5
521,Goure,12,NE,2019-03-19 03:18:31,27,13.98,10.27,22.81,4.27
522,Metro,68,ID,2019-03-19 03:18:31,92,-5.11,105.31,27.16,3.02
523,Amapa,20,HN,2019-03-19 03:00:00,83,15.09,-87.97,24.0,1.0
524,Tasgaon,0,IN,2019-03-19 03:18:31,62,17.04,74.6,21.81,1.92
525,Zheleznodorozhnyy,90,RU,2019-03-19 03:17:42,93,55.75,38.0,3.33,5.0
526,Sioux Lookout,90,CA,2019-03-19 02:00:00,77,50.1,-91.92,1.0,1.0
527,Mayumba,92,GA,2019-03-19 03:18:32,100,-3.44,10.65,25.31,1.82
528,Sabaudia,40,IT,2019-03-19 03:18:32,81,41.3,13.03,9.0,3.1
529,Plettenberg Bay,48,ZA,2019-03-19 03:18:33,100,-34.05,23.37,20.41,2.02
530,Sobolevo,88,RU,2019-03-19 03:18:33,90,54.43,31.9,0.56,4.07
531,Kegums,90,LV,2019-03-19 03:14:28,80,56.75,24.72,4.0,4.6
532,Surt,64,LY,2019-03-19 03:18:34,74,31.21,16.59,16.56,5.32
533,Luzhou,88,CN,2019-03-19 03:18:34,95,28.89,105.45,15.06,1.77
534,La Ligua,0,CL,2019-03-19 03:00:00,67,-32.45,-71.23,15.0,2.6
535,Nishihara,75,JP,2019-03-19 03:17:39,33,35.74,139.53,19.44,3.6
536,Phangnga,20,TH,2019-03-19 02:30:00,62,8.45,98.53,30.0,0.5
